[
	{
		"uf" : "110001505000001",
		"cod_ibge" : "1100015",
		"nome" : "ALTA FLORESTA D'OESTE",
		"lat" : -11.9355403047646,
		"long" : -61.9998238962936
	},
	{
		"uf" : "110002305000001",
		"cod_ibge" : "1100023",
		"nome" : "ARIQUEMES",
		"lat" : -9.9084628665672,
		"long" : -63.0332692780484
	},
	{
		"uf" : "110003105000001",
		"cod_ibge" : "1100031",
		"nome" : "CABIXI",
		"lat" : -13.4997634596963,
		"long" : -60.5443135812009
	},
	{
		"uf" : "110004905000001",
		"cod_ibge" : "1100049",
		"nome" : "CACOAL",
		"lat" : -11.4338650286852,
		"long" : -61.4429442118224
	},
	{
		"uf" : "110005605000001",
		"cod_ibge" : "1100056",
		"nome" : "CEREJEIRAS",
		"lat" : -13.1950330320399,
		"long" : -60.8184261646815
	},
	{
		"uf" : "110006405000001",
		"cod_ibge" : "1100064",
		"nome" : "COLORADO DO OESTE",
		"lat" : -13.1305638414553,
		"long" : -60.5550674630789
	},
	{
		"uf" : "110007205000001",
		"cod_ibge" : "1100072",
		"nome" : "CORUMBIARA",
		"lat" : -12.9975202364834,
		"long" : -60.9487011706614
	},
	{
		"uf" : "110008005000001",
		"cod_ibge" : "1100080",
		"nome" : "COSTA MARQUES",
		"lat" : -12.4360138777142,
		"long" : -64.2316539391172
	},
	{
		"uf" : "110009805000001",
		"cod_ibge" : "1100098",
		"nome" : "ESPIGÃO D'OESTE",
		"lat" : -11.5285546333473,
		"long" : -61.0201731132847
	},
	{
		"uf" : "110010605000001",
		"cod_ibge" : "1100106",
		"nome" : "GUAJARÁ-MIRIM",
		"lat" : -10.7738837406705,
		"long" : -65.3239518196923
	},
	{
		"uf" : "110011405000001",
		"cod_ibge" : "1100114",
		"nome" : "JARU",
		"lat" : -10.4359487678844,
		"long" : -62.4762307081317
	},
	{
		"uf" : "110012205000001",
		"cod_ibge" : "1100122",
		"nome" : "JI-PARANÁ",
		"lat" : -10.882051318349,
		"long" : -61.9450945826841
	},
	{
		"uf" : "110013005000001",
		"cod_ibge" : "1100130",
		"nome" : "MACHADINHO D'OESTE",
		"lat" : -9.42556248,
		"long" : -61.9995925724466
	},
	{
		"uf" : "110014805000001",
		"cod_ibge" : "1100148",
		"nome" : "NOVA BRASILÂNDIA D'OESTE",
		"lat" : -11.7213254138559,
		"long" : -62.308230163019
	},
	{
		"uf" : "110015505000001",
		"cod_ibge" : "1100155",
		"nome" : "OURO PRETO DO OESTE",
		"lat" : -10.7235739008135,
		"long" : -62.2610551904363
	},
	{
		"uf" : "110018905000001",
		"cod_ibge" : "1100189",
		"nome" : "PIMENTA BUENO",
		"lat" : -11.67753699,
		"long" : -61.183665673642
	},
	{
		"uf" : "110020505000001",
		"cod_ibge" : "1100205",
		"nome" : "PORTO VELHO",
		"lat" : -8.76889179,
		"long" : -63.8314456543611
	},
	{
		"uf" : "110025405000001",
		"cod_ibge" : "1100254",
		"nome" : "PRESIDENTE MÉDICI",
		"lat" : -11.1732050162268,
		"long" : -61.9094386835298
	},
	{
		"uf" : "110026205000001",
		"cod_ibge" : "1100262",
		"nome" : "RIO CRESPO",
		"lat" : -9.70553670973949,
		"long" : -62.9000103659589
	},
	{
		"uf" : "110028805000001",
		"cod_ibge" : "1100288",
		"nome" : "ROLIM DE MOURA",
		"lat" : -11.7222589133808,
		"long" : -61.7857809351854
	},
	{
		"uf" : "110029605000001",
		"cod_ibge" : "1100296",
		"nome" : "SANTA LUZIA D'OESTE",
		"lat" : -11.908423332469,
		"long" : -61.7733054630545
	},
	{
		"uf" : "110030405000001",
		"cod_ibge" : "1100304",
		"nome" : "VILHENA",
		"lat" : -12.7413734718029,
		"long" : -60.1385838660987
	},
	{
		"uf" : "110032005000001",
		"cod_ibge" : "1100320",
		"nome" : "SÃO MIGUEL DO GUAPORÉ",
		"lat" : -11.699489743806,
		"long" : -62.7200634814364
	},
	{
		"uf" : "110033805000001",
		"cod_ibge" : "1100338",
		"nome" : "NOVA MAMORÉ",
		"lat" : -10.4117712947002,
		"long" : -65.3291490231467
	},
	{
		"uf" : "110034605000001",
		"cod_ibge" : "1100346",
		"nome" : "ALVORADA D'OESTE",
		"lat" : -11.3441300234334,
		"long" : -62.2772748656972
	},
	{
		"uf" : "120030205000001",
		"cod_ibge" : "1200302",
		"nome" : "FEIJÓ",
		"lat" : -8.16024753,
		"long" : -70.3539836082165
	},
	{
		"uf" : "110037905000001",
		"cod_ibge" : "1100379",
		"nome" : "ALTO ALEGRE DOS PARECIS",
		"lat" : -12.1317772245709,
		"long" : -61.853077168603
	},
	{
		"uf" : "110040305000001",
		"cod_ibge" : "1100403",
		"nome" : "ALTO PARAÍSO",
		"lat" : -9.71666673807728,
		"long" : -63.3176294334976
	},
	{
		"uf" : "110045205000001",
		"cod_ibge" : "1100452",
		"nome" : "BURITIS",
		"lat" : -10.2098054072356,
		"long" : -63.8296787917565
	},
	{
		"uf" : "110050205000001",
		"cod_ibge" : "1100502",
		"nome" : "NOVO HORIZONTE DO OESTE",
		"lat" : -11.7097429200152,
		"long" : -61.9943876627606
	},
	{
		"uf" : "110060105000001",
		"cod_ibge" : "1100601",
		"nome" : "CACAULÂNDIA",
		"lat" : -10.3388728393928,
		"long" : -62.9031899345687
	},
	{
		"uf" : "110070005000001",
		"cod_ibge" : "1100700",
		"nome" : "CAMPO NOVO DE RONDÔNIA",
		"lat" : -10.5684164693485,
		"long" : -63.6249914265426
	},
	{
		"uf" : "110080905000001",
		"cod_ibge" : "1100809",
		"nome" : "CANDEIAS DO JAMARI",
		"lat" : -8.78502070347748,
		"long" : -63.7000200718298
	},
	{
		"uf" : "110090805000001",
		"cod_ibge" : "1100908",
		"nome" : "CASTANHEIRAS",
		"lat" : -11.4268422254625,
		"long" : -61.9491611964662
	},
	{
		"uf" : "110092405000001",
		"cod_ibge" : "1100924",
		"nome" : "CHUPINGUAIA",
		"lat" : -12.5568407610938,
		"long" : -60.9018477499554
	},
	{
		"uf" : "110094005000001",
		"cod_ibge" : "1100940",
		"nome" : "CUJUBIM",
		"lat" : -9.37819339905712,
		"long" : -62.5871745319209
	},
	{
		"uf" : "110100505000001",
		"cod_ibge" : "1101005",
		"nome" : "GOVERNADOR JORGE TEIXEIRA",
		"lat" : -10.6120717726075,
		"long" : -62.7404576394632
	},
	{
		"uf" : "110110405000001",
		"cod_ibge" : "1101104",
		"nome" : "ITAPUÃ DO OESTE",
		"lat" : -9.19187167532785,
		"long" : -63.1823370165183
	},
	{
		"uf" : "110120305000001",
		"cod_ibge" : "1101203",
		"nome" : "MINISTRO ANDREAZZA",
		"lat" : -11.1962379841591,
		"long" : -61.5189219301054
	},
	{
		"uf" : "110130205000001",
		"cod_ibge" : "1101302",
		"nome" : "MIRANTE DA SERRA",
		"lat" : -11.045609289937,
		"long" : -62.6694270952566
	},
	{
		"uf" : "110140105000001",
		"cod_ibge" : "1101401",
		"nome" : "MONTE NEGRO",
		"lat" : -10.263097755883,
		"long" : -63.2955591672175
	},
	{
		"uf" : "110143505000001",
		"cod_ibge" : "1101435",
		"nome" : "NOVA UNIÃO",
		"lat" : -10.9155320416628,
		"long" : -62.55508939888
	},
	{
		"uf" : "110145005000001",
		"cod_ibge" : "1101450",
		"nome" : "PARECIS",
		"lat" : -12.1798270507077,
		"long" : -61.5979979726776
	},
	{
		"uf" : "110146805000001",
		"cod_ibge" : "1101468",
		"nome" : "PIMENTEIRAS DO OESTE",
		"lat" : -13.4765620024615,
		"long" : -61.0443790025384
	},
	{
		"uf" : "110147605000001",
		"cod_ibge" : "1101476",
		"nome" : "PRIMAVERA DE RONDÔNIA",
		"lat" : -11.8257069542468,
		"long" : -61.3165462429165
	},
	{
		"uf" : "110148405000001",
		"cod_ibge" : "1101484",
		"nome" : "SÃO FELIPE D'OESTE",
		"lat" : -11.9143893546886,
		"long" : -61.5125081133327
	},
	{
		"uf" : "110149205000001",
		"cod_ibge" : "1101492",
		"nome" : "SÃO FRANCISCO DO GUAPORÉ",
		"lat" : -12.0637984122334,
		"long" : -63.5708647107649
	},
	{
		"uf" : "110150005000001",
		"cod_ibge" : "1101500",
		"nome" : "SERINGUEIRAS",
		"lat" : -11.767116635607,
		"long" : -63.0387609977072
	},
	{
		"uf" : "110155905000001",
		"cod_ibge" : "1101559",
		"nome" : "TEIXEIRÓPOLIS",
		"lat" : -10.9321692860399,
		"long" : -62.2559222539546
	},
	{
		"uf" : "110160905000001",
		"cod_ibge" : "1101609",
		"nome" : "THEOBROMA",
		"lat" : -10.2487305520261,
		"long" : -62.3451455299349
	},
	{
		"uf" : "110170805000001",
		"cod_ibge" : "1101708",
		"nome" : "URUPÁ",
		"lat" : -11.1285452756794,
		"long" : -62.3706324537667
	},
	{
		"uf" : "110175705000001",
		"cod_ibge" : "1101757",
		"nome" : "VALE DO ANARI",
		"lat" : -9.85139270806179,
		"long" : -62.1768234421278
	},
	{
		"uf" : "110180705000001",
		"cod_ibge" : "1101807",
		"nome" : "VALE DO PARAÍSO",
		"lat" : -10.4310526845565,
		"long" : -62.1343903568099
	},
	{
		"uf" : "120001305000001",
		"cod_ibge" : "1200013",
		"nome" : "ACRELÂNDIA",
		"lat" : -10.0737938924635,
		"long" : -67.0523165800206
	},
	{
		"uf" : "120005405000001",
		"cod_ibge" : "1200054",
		"nome" : "ASSIS BRASIL",
		"lat" : -10.9428656809172,
		"long" : -69.5634591746677
	},
	{
		"uf" : "120010405000001",
		"cod_ibge" : "1200104",
		"nome" : "BRASILÉIA",
		"lat" : -11.0164110190858,
		"long" : -68.7479434259584
	},
	{
		"uf" : "120013805000001",
		"cod_ibge" : "1200138",
		"nome" : "BUJARI",
		"lat" : -9.82001962670938,
		"long" : -67.9518592792015
	},
	{
		"uf" : "120017905000001",
		"cod_ibge" : "1200179",
		"nome" : "CAPIXABA",
		"lat" : -10.5697677087928,
		"long" : -67.6735079719432
	},
	{
		"uf" : "120020305000001",
		"cod_ibge" : "1200203",
		"nome" : "CRUZEIRO DO SUL",
		"lat" : -7.63069000500981,
		"long" : -72.6725313174358
	},
	{
		"uf" : "120025205000001",
		"cod_ibge" : "1200252",
		"nome" : "EPITACIOLÂNDIA",
		"lat" : -11.0282398279564,
		"long" : -68.7448680666749
	},
	{
		"uf" : "120032805000001",
		"cod_ibge" : "1200328",
		"nome" : "JORDÃO",
		"lat" : -9.19335785982848,
		"long" : -71.9508751248365
	},
	{
		"uf" : "120033605000001",
		"cod_ibge" : "1200336",
		"nome" : "MÂNCIO LIMA",
		"lat" : -7.59322259385836,
		"long" : -72.9165010261308
	},
	{
		"uf" : "120034405000001",
		"cod_ibge" : "1200344",
		"nome" : "MANOEL URBANO",
		"lat" : -8.83631773689166,
		"long" : -69.2599445775075
	},
	{
		"uf" : "120035105000001",
		"cod_ibge" : "1200351",
		"nome" : "MARECHAL THAUMATURGO",
		"lat" : -8.95359112315366,
		"long" : -72.7902659086983
	},
	{
		"uf" : "120038505000001",
		"cod_ibge" : "1200385",
		"nome" : "PLÁCIDO DE CASTRO",
		"lat" : -10.3351332827427,
		"long" : -67.1882600861516
	},
	{
		"uf" : "120039305000001",
		"cod_ibge" : "1200393",
		"nome" : "PORTO WALTER",
		"lat" : -8.26666636282753,
		"long" : -72.7423339648033
	},
	{
		"uf" : "120040105000001",
		"cod_ibge" : "1200401",
		"nome" : "RIO BRANCO",
		"lat" : -9.97829875272498,
		"long" : -67.8105287004235
	},
	{
		"uf" : "120042705000001",
		"cod_ibge" : "1200427",
		"nome" : "RODRIGUES ALVES",
		"lat" : -7.73360203372322,
		"long" : -72.6478549141997
	},
	{
		"uf" : "120043505000001",
		"cod_ibge" : "1200435",
		"nome" : "SANTA ROSA DO PURUS",
		"lat" : -9.44340653741185,
		"long" : -70.4864968937616
	},
	{
		"uf" : "120045005000001",
		"cod_ibge" : "1200450",
		"nome" : "SENADOR GUIOMARD",
		"lat" : -10.1481735861989,
		"long" : -67.7431723600051
	},
	{
		"uf" : "120050005000001",
		"cod_ibge" : "1200500",
		"nome" : "SENA MADUREIRA",
		"lat" : -9.065339505,
		"long" : -68.655684061692
	},
	{
		"uf" : "120060905000001",
		"cod_ibge" : "1200609",
		"nome" : "TARAUACÁ",
		"lat" : -8.15566859176562,
		"long" : -70.7555010628937
	},
	{
		"uf" : "120070805000001",
		"cod_ibge" : "1200708",
		"nome" : "XAPURI",
		"lat" : -10.6520719403355,
		"long" : -68.5062948050463
	},
	{
		"uf" : "120080705000001",
		"cod_ibge" : "1200807",
		"nome" : "PORTO ACRE",
		"lat" : -9.60085823118788,
		"long" : -67.5405900835194
	},
	{
		"uf" : "130002905000001",
		"cod_ibge" : "1300029",
		"nome" : "ALVARÃES",
		"lat" : -3.21658376906639,
		"long" : -64.8135346775686
	},
	{
		"uf" : "130006005000001",
		"cod_ibge" : "1300060",
		"nome" : "AMATURÁ",
		"lat" : -3.36680518750561,
		"long" : -68.2096146409404
	},
	{
		"uf" : "130008605000001",
		"cod_ibge" : "1300086",
		"nome" : "ANAMÃ",
		"lat" : -3.57637042689027,
		"long" : -61.4059034797501
	},
	{
		"uf" : "130010205000001",
		"cod_ibge" : "1300102",
		"nome" : "ANORI",
		"lat" : -3.74538558611889,
		"long" : -61.6589553828779
	},
	{
		"uf" : "130014405000001",
		"cod_ibge" : "1300144",
		"nome" : "APUÍ",
		"lat" : -7.1978701516076,
		"long" : -59.8856661047188
	},
	{
		"uf" : "130020105000001",
		"cod_ibge" : "1300201",
		"nome" : "ATALAIA DO NORTE",
		"lat" : -4.36615748971603,
		"long" : -70.1879892845226
	},
	{
		"uf" : "150310105000001",
		"cod_ibge" : "1503101",
		"nome" : "GURUPÁ",
		"lat" : -1.404918,
		"long" : -51.6436957233941
	},
	{
		"uf" : "130030005000001",
		"cod_ibge" : "1300300",
		"nome" : "AUTAZES",
		"lat" : -3.57866364177127,
		"long" : -59.1335670918168
	},
	{
		"uf" : "130040905000001",
		"cod_ibge" : "1300409",
		"nome" : "BARCELOS",
		"lat" : -0.972801052532191,
		"long" : -62.9256696581026
	},
	{
		"uf" : "130130805000001",
		"cod_ibge" : "1301308",
		"nome" : "CODAJÁS",
		"lat" : -3.84304593273892,
		"long" : -62.0634296604883
	},
	{
		"uf" : "130050805000001",
		"cod_ibge" : "1300508",
		"nome" : "BARREIRINHA",
		"lat" : -2.7981498369298,
		"long" : -57.0677504898938
	},
	{
		"uf" : "130060705000001",
		"cod_ibge" : "1300607",
		"nome" : "BENJAMIN CONSTANT",
		"lat" : -4.37498901860391,
		"long" : -70.0273484332765
	},
	{
		"uf" : "130063105000001",
		"cod_ibge" : "1300631",
		"nome" : "BERURI",
		"lat" : -3.89451340981806,
		"long" : -61.3715708916659
	},
	{
		"uf" : "130068005000001",
		"cod_ibge" : "1300680",
		"nome" : "BOA VISTA DO RAMOS",
		"lat" : -2.97172653158936,
		"long" : -57.5877073464737
	},
	{
		"uf" : "130070605000001",
		"cod_ibge" : "1300706",
		"nome" : "BOCA DO ACRE",
		"lat" : -8.75124319609379,
		"long" : -67.3995777566805
	},
	{
		"uf" : "130080505000001",
		"cod_ibge" : "1300805",
		"nome" : "BORBA",
		"lat" : -4.39061989147273,
		"long" : -59.5945590194969
	},
	{
		"uf" : "130083905000001",
		"cod_ibge" : "1300839",
		"nome" : "CAAPIRANGA",
		"lat" : -3.3300933919416,
		"long" : -61.2113341331817
	},
	{
		"uf" : "130090405000001",
		"cod_ibge" : "1300904",
		"nome" : "CANUTAMA",
		"lat" : -6.52910607582614,
		"long" : -64.3942308189288
	},
	{
		"uf" : "130100105000001",
		"cod_ibge" : "1301001",
		"nome" : "CARAUARI",
		"lat" : -4.88166590420413,
		"long" : -66.8966352816837
	},
	{
		"uf" : "130110005000001",
		"cod_ibge" : "1301100",
		"nome" : "CAREIRO",
		"lat" : -3.82244727004599,
		"long" : -60.3638098437089
	},
	{
		"uf" : "130115905000001",
		"cod_ibge" : "1301159",
		"nome" : "CAREIRO DA VÁRZEA",
		"lat" : -3.1973965948696,
		"long" : -59.8263140608339
	},
	{
		"uf" : "130120905000001",
		"cod_ibge" : "1301209",
		"nome" : "COARI",
		"lat" : -4.08421915877588,
		"long" : -63.1421839840562
	},
	{
		"uf" : "130140705000001",
		"cod_ibge" : "1301407",
		"nome" : "EIRUNEPÉ",
		"lat" : -6.66735256685182,
		"long" : -69.8662902624416
	},
	{
		"uf" : "130150605000001",
		"cod_ibge" : "1301506",
		"nome" : "ENVIRA",
		"lat" : -7.43981754396838,
		"long" : -70.0304125429825
	},
	{
		"uf" : "130160505000001",
		"cod_ibge" : "1301605",
		"nome" : "FONTE BOA",
		"lat" : -2.51227068454779,
		"long" : -66.0965029898347
	},
	{
		"uf" : "130165405000001",
		"cod_ibge" : "1301654",
		"nome" : "GUAJARÁ",
		"lat" : -7.5477744148336,
		"long" : -72.5824305383396
	},
	{
		"uf" : "130170405000001",
		"cod_ibge" : "1301704",
		"nome" : "HUMAITÁ",
		"lat" : -7.51222495061139,
		"long" : -63.0266980219283
	},
	{
		"uf" : "130180305000001",
		"cod_ibge" : "1301803",
		"nome" : "IPIXUNA",
		"lat" : -7.05098011443721,
		"long" : -71.6944180603084
	},
	{
		"uf" : "130185205000001",
		"cod_ibge" : "1301852",
		"nome" : "IRANDUBA",
		"lat" : -3.2810538776069,
		"long" : -60.1933881661307
	},
	{
		"uf" : "130190205000001",
		"cod_ibge" : "1301902",
		"nome" : "ITACOATIARA",
		"lat" : -3.14037880391635,
		"long" : -58.4401754367571
	},
	{
		"uf" : "130195105000001",
		"cod_ibge" : "1301951",
		"nome" : "ITAMARATI",
		"lat" : -6.43779934861918,
		"long" : -68.2479174359782
	},
	{
		"uf" : "130200905000001",
		"cod_ibge" : "1302009",
		"nome" : "ITAPIRANGA",
		"lat" : -2.74184275232884,
		"long" : -58.0345458839662
	},
	{
		"uf" : "130210805000001",
		"cod_ibge" : "1302108",
		"nome" : "JAPURÁ",
		"lat" : -1.880844858703,
		"long" : -66.9969034946413
	},
	{
		"uf" : "130220705000001",
		"cod_ibge" : "1302207",
		"nome" : "JURUÁ",
		"lat" : -3.47488959889068,
		"long" : -66.0630419255434
	},
	{
		"uf" : "130230605000001",
		"cod_ibge" : "1302306",
		"nome" : "JUTAÍ",
		"lat" : -2.74464644685786,
		"long" : -66.7713275466878
	},
	{
		"uf" : "130240505000001",
		"cod_ibge" : "1302405",
		"nome" : "LÁBREA",
		"lat" : -7.26194655332705,
		"long" : -64.79477302752
	},
	{
		"uf" : "130250405000001",
		"cod_ibge" : "1302504",
		"nome" : "MANACAPURU",
		"lat" : -3.29827803546755,
		"long" : -60.6205894458706
	},
	{
		"uf" : "130255305000001",
		"cod_ibge" : "1302553",
		"nome" : "MANAQUIRI",
		"lat" : -3.42907966935262,
		"long" : -60.4588813063745
	},
	{
		"uf" : "130260305060001",
		"cod_ibge" : "1302603",
		"nome" : "MANAUS",
		"lat" : -3.13469149120195,
		"long" : -60.023335181061
	},
	{
		"uf" : "130270205000001",
		"cod_ibge" : "1302702",
		"nome" : "MANICORÉ",
		"lat" : -5.81320526118813,
		"long" : -61.2992484088508
	},
	{
		"uf" : "130280105000001",
		"cod_ibge" : "1302801",
		"nome" : "MARAÃ",
		"lat" : -1.86643687730125,
		"long" : -65.5742837031641
	},
	{
		"uf" : "130290005000001",
		"cod_ibge" : "1302900",
		"nome" : "MAUÉS",
		"lat" : -3.38642792621106,
		"long" : -57.7150343867525
	},
	{
		"uf" : "130300705000001",
		"cod_ibge" : "1303007",
		"nome" : "NHAMUNDÁ",
		"lat" : -2.1889837668969,
		"long" : -56.7167699133376
	},
	{
		"uf" : "130310605000001",
		"cod_ibge" : "1303106",
		"nome" : "NOVA OLINDA DO NORTE",
		"lat" : -3.88759283191138,
		"long" : -59.0930740260433
	},
	{
		"uf" : "130320505000001",
		"cod_ibge" : "1303205",
		"nome" : "NOVO AIRÃO",
		"lat" : -2.62343245902763,
		"long" : -60.948810707829
	},
	{
		"uf" : "130330405000001",
		"cod_ibge" : "1303304",
		"nome" : "NOVO ARIPUANÃ",
		"lat" : -5.12266931419617,
		"long" : -60.3770456690009
	},
	{
		"uf" : "130340305000001",
		"cod_ibge" : "1303403",
		"nome" : "PARINTINS",
		"lat" : -2.62705258583723,
		"long" : -56.7362921451951
	},
	{
		"uf" : "130350205000001",
		"cod_ibge" : "1303502",
		"nome" : "PAUINI",
		"lat" : -7.71404364432219,
		"long" : -67.0020974885282
	},
	{
		"uf" : "130353605000001",
		"cod_ibge" : "1303536",
		"nome" : "PRESIDENTE FIGUEIREDO",
		"lat" : -2.058429085233,
		"long" : -60.0256468344675
	},
	{
		"uf" : "130356905000001",
		"cod_ibge" : "1303569",
		"nome" : "RIO PRETO DA EVA",
		"lat" : -2.6933015416451,
		"long" : -59.704738094199
	},
	{
		"uf" : "130360105000001",
		"cod_ibge" : "1303601",
		"nome" : "SANTA ISABEL DO RIO NEGRO",
		"lat" : -0.416694831881864,
		"long" : -65.020022639512
	},
	{
		"uf" : "130370005000001",
		"cod_ibge" : "1303700",
		"nome" : "SANTO ANTÔNIO DO IÇÁ",
		"lat" : -3.10748630918151,
		"long" : -67.9464851438841
	},
	{
		"uf" : "130380905000001",
		"cod_ibge" : "1303809",
		"nome" : "SÃO GABRIEL DA CACHOEIRA",
		"lat" : -0.136462788116522,
		"long" : -67.0836428963463
	},
	{
		"uf" : "130390805000001",
		"cod_ibge" : "1303908",
		"nome" : "SÃO PAULO DE OLIVENÇA",
		"lat" : -3.46650962349132,
		"long" : -68.9448534881358
	},
	{
		"uf" : "130395705000001",
		"cod_ibge" : "1303957",
		"nome" : "SÃO SEBASTIÃO DO UATUMÃ",
		"lat" : -2.57015257967785,
		"long" : -57.8703463558346
	},
	{
		"uf" : "130400505000001",
		"cod_ibge" : "1304005",
		"nome" : "SILVES",
		"lat" : -2.83642742966584,
		"long" : -58.2148008608269
	},
	{
		"uf" : "130406205000001",
		"cod_ibge" : "1304062",
		"nome" : "TABATINGA",
		"lat" : -4.23188367564665,
		"long" : -69.9462443752272
	},
	{
		"uf" : "130410405000001",
		"cod_ibge" : "1304104",
		"nome" : "TAPAUÁ",
		"lat" : -5.62422351778794,
		"long" : -63.1870948671802
	},
	{
		"uf" : "130420305000001",
		"cod_ibge" : "1304203",
		"nome" : "TEFÉ",
		"lat" : -3.34837249394151,
		"long" : -64.7084196633027
	},
	{
		"uf" : "130423705000001",
		"cod_ibge" : "1304237",
		"nome" : "TONANTINS",
		"lat" : -2.86109124983543,
		"long" : -67.7764822806952
	},
	{
		"uf" : "130426005000001",
		"cod_ibge" : "1304260",
		"nome" : "UARINI",
		"lat" : -2.9836092426921,
		"long" : -65.1553456401554
	},
	{
		"uf" : "130430205000001",
		"cod_ibge" : "1304302",
		"nome" : "URUCARÁ",
		"lat" : -2.53661167184038,
		"long" : -57.7598281745956
	},
	{
		"uf" : "130440105000001",
		"cod_ibge" : "1304401",
		"nome" : "URUCURITUBA",
		"lat" : -3.1346331156473,
		"long" : -58.1596410413098
	},
	{
		"uf" : "140002705000001",
		"cod_ibge" : "1400027",
		"nome" : "AMAJARI",
		"lat" : 3.6521184454459,
		"long" : -61.4205901726631
	},
	{
		"uf" : "140005005000001",
		"cod_ibge" : "1400050",
		"nome" : "ALTO ALEGRE",
		"lat" : 2.99382294765484,
		"long" : -61.3140223901178
	},
	{
		"uf" : "140010005000001",
		"cod_ibge" : "1400100",
		"nome" : "BOA VISTA",
		"lat" : 2.81668191910439,
		"long" : -60.6705326729651
	},
	{
		"uf" : "140015905000001",
		"cod_ibge" : "1400159",
		"nome" : "BONFIM",
		"lat" : 3.35028861911032,
		"long" : -59.8780066289099
	},
	{
		"uf" : "140017505000001",
		"cod_ibge" : "1400175",
		"nome" : "CANTÁ",
		"lat" : 2.60766639841651,
		"long" : -60.6020628476112
	},
	{
		"uf" : "140020905000001",
		"cod_ibge" : "1400209",
		"nome" : "CARACARAÍ",
		"lat" : 1.80387124729759,
		"long" : -61.14917687013
	},
	{
		"uf" : "140023305000001",
		"cod_ibge" : "1400233",
		"nome" : "CAROEBE",
		"lat" : 0.872674507186562,
		"long" : -59.6948100736757
	},
	{
		"uf" : "140028205000001",
		"cod_ibge" : "1400282",
		"nome" : "IRACEMA",
		"lat" : 2.16821476520387,
		"long" : -61.0522585850197
	},
	{
		"uf" : "140030805000001",
		"cod_ibge" : "1400308",
		"nome" : "MUCAJAÍ",
		"lat" : 2.47977223505342,
		"long" : -60.9115185306216
	},
	{
		"uf" : "140040705000001",
		"cod_ibge" : "1400407",
		"nome" : "NORMANDIA",
		"lat" : 3.88297828530181,
		"long" : -59.6352062835683
	},
	{
		"uf" : "140045605000001",
		"cod_ibge" : "1400456",
		"nome" : "PACARAIMA",
		"lat" : 4.47525934021226,
		"long" : -61.1473063471493
	},
	{
		"uf" : "140047205000001",
		"cod_ibge" : "1400472",
		"nome" : "RORAINÓPOLIS",
		"lat" : 0.937195393597556,
		"long" : -60.4250604939819
	},
	{
		"uf" : "140050605000001",
		"cod_ibge" : "1400506",
		"nome" : "SÃO JOÃO DA BALIZA",
		"lat" : 0.947157427466681,
		"long" : -59.9060443451544
	},
	{
		"uf" : "140060505000001",
		"cod_ibge" : "1400605",
		"nome" : "SÃO LUIZ",
		"lat" : 1.01811162739126,
		"long" : -60.0282667741903
	},
	{
		"uf" : "140070405000001",
		"cod_ibge" : "1400704",
		"nome" : "UIRAMUTÃ",
		"lat" : 4.58544038754255,
		"long" : -60.195716148042
	},
	{
		"uf" : "150010705000001",
		"cod_ibge" : "1500107",
		"nome" : "ABAETETUBA",
		"lat" : -1.72346986284591,
		"long" : -48.8844038207231
	},
	{
		"uf" : "150013105000001",
		"cod_ibge" : "1500131",
		"nome" : "ABEL FIGUEIREDO",
		"lat" : -4.9513908955313,
		"long" : -48.3967621257945
	},
	{
		"uf" : "150020605000001",
		"cod_ibge" : "1500206",
		"nome" : "ACARÁ",
		"lat" : -1.9634365,
		"long" : -48.2004564317501
	},
	{
		"uf" : "150030505000001",
		"cod_ibge" : "1500305",
		"nome" : "AFUÁ",
		"lat" : -0.159171693779797,
		"long" : -50.3914275892332
	},
	{
		"uf" : "150034705000001",
		"cod_ibge" : "1500347",
		"nome" : "ÁGUA AZUL DO NORTE",
		"lat" : -6.80494886740538,
		"long" : -50.4852745072531
	},
	{
		"uf" : "150040405000001",
		"cod_ibge" : "1500404",
		"nome" : "ALENQUER",
		"lat" : -1.951397505,
		"long" : -54.7408623501896
	},
	{
		"uf" : "150050305000001",
		"cod_ibge" : "1500503",
		"nome" : "ALMEIRIM",
		"lat" : -1.52733880276478,
		"long" : -52.5768350868127
	},
	{
		"uf" : "150060205000001",
		"cod_ibge" : "1500602",
		"nome" : "ALTAMIRA",
		"lat" : -3.20565951,
		"long" : -52.2143763052078
	},
	{
		"uf" : "150070105000001",
		"cod_ibge" : "1500701",
		"nome" : "ANAJÁS",
		"lat" : -0.984451394008702,
		"long" : -49.945001040544
	},
	{
		"uf" : "150080005000001",
		"cod_ibge" : "1500800",
		"nome" : "ANANINDEUA",
		"lat" : -1.36871356826946,
		"long" : -48.372066654168
	},
	{
		"uf" : "150085905000001",
		"cod_ibge" : "1500859",
		"nome" : "ANAPU",
		"lat" : -3.47610463506868,
		"long" : -51.2016217984581
	},
	{
		"uf" : "150090905000001",
		"cod_ibge" : "1500909",
		"nome" : "AUGUSTO CORRÊA",
		"lat" : -1.02292101,
		"long" : -46.6416457856711
	},
	{
		"uf" : "150095805000001",
		"cod_ibge" : "1500958",
		"nome" : "AURORA DO PARÁ",
		"lat" : -2.12937601319444,
		"long" : -47.5561746036128
	},
	{
		"uf" : "150100605000001",
		"cod_ibge" : "1501006",
		"nome" : "AVEIRO",
		"lat" : -3.60559525928393,
		"long" : -55.3307343898178
	},
	{
		"uf" : "150110505000001",
		"cod_ibge" : "1501105",
		"nome" : "BAGRE",
		"lat" : -1.88980806036172,
		"long" : -50.2219869206135
	},
	{
		"uf" : "150120405000001",
		"cod_ibge" : "1501204",
		"nome" : "BAIÃO",
		"lat" : -2.79196186136136,
		"long" : -49.6727533733253
	},
	{
		"uf" : "150125305000001",
		"cod_ibge" : "1501253",
		"nome" : "BANNACH",
		"lat" : -7.3510721924244,
		"long" : -50.4060471215195
	},
	{
		"uf" : "150130305000001",
		"cod_ibge" : "1501303",
		"nome" : "BARCARENA",
		"lat" : -1.505767005,
		"long" : -48.6270728925156
	},
	{
		"uf" : "150140205000001",
		"cod_ibge" : "1501402",
		"nome" : "BELÉM",
		"lat" : -1.459845,
		"long" : -48.4878256874876
	},
	{
		"uf" : "150145105000001",
		"cod_ibge" : "1501451",
		"nome" : "BELTERRA",
		"lat" : -2.64902016946856,
		"long" : -54.9426747393262
	},
	{
		"uf" : "150150105000001",
		"cod_ibge" : "1501501",
		"nome" : "BENEVIDES",
		"lat" : -1.361437515,
		"long" : -48.2418364505703
	},
	{
		"uf" : "150157605000001",
		"cod_ibge" : "1501576",
		"nome" : "BOM JESUS DO TOCANTINS",
		"lat" : -5.04736270432029,
		"long" : -48.5990399590615
	},
	{
		"uf" : "150160005000001",
		"cod_ibge" : "1501600",
		"nome" : "BONITO",
		"lat" : -1.36747435687254,
		"long" : -47.3058918168639
	},
	{
		"uf" : "150170905000001",
		"cod_ibge" : "1501709",
		"nome" : "BRAGANÇA",
		"lat" : -1.05352395620564,
		"long" : -46.765754213664
	},
	{
		"uf" : "150172505000001",
		"cod_ibge" : "1501725",
		"nome" : "BRASIL NOVO",
		"lat" : -3.29780370400837,
		"long" : -52.5434411922788
	},
	{
		"uf" : "150175805000001",
		"cod_ibge" : "1501758",
		"nome" : "BREJO GRANDE DO ARAGUAIA",
		"lat" : -5.70729615383609,
		"long" : -48.4057604223874
	},
	{
		"uf" : "150178205000001",
		"cod_ibge" : "1501782",
		"nome" : "BREU BRANCO",
		"lat" : -3.77813541287867,
		"long" : -49.5698796832857
	},
	{
		"uf" : "150180805000001",
		"cod_ibge" : "1501808",
		"nome" : "BREVES",
		"lat" : -1.6907365,
		"long" : -50.4808947990195
	},
	{
		"uf" : "150190705000001",
		"cod_ibge" : "1501907",
		"nome" : "BUJARU",
		"lat" : -1.51399146230061,
		"long" : -48.035875014396
	},
	{
		"uf" : "150195605000001",
		"cod_ibge" : "1501956",
		"nome" : "CACHOEIRA DO PIRIÁ",
		"lat" : -1.75289700493124,
		"long" : -46.5473914166255
	},
	{
		"uf" : "150200405000001",
		"cod_ibge" : "1502004",
		"nome" : "CACHOEIRA DO ARARI",
		"lat" : -1.00878626563928,
		"long" : -48.9606675773871
	},
	{
		"uf" : "150210305000001",
		"cod_ibge" : "1502103",
		"nome" : "CAMETÁ",
		"lat" : -2.24683848,
		"long" : -49.497830168997
	},
	{
		"uf" : "150215205000001",
		"cod_ibge" : "1502152",
		"nome" : "CANAÃ DOS CARAJÁS",
		"lat" : -6.5321966156294,
		"long" : -49.8489584319153
	},
	{
		"uf" : "150220205000001",
		"cod_ibge" : "1502202",
		"nome" : "CAPANEMA",
		"lat" : -1.192441995,
		"long" : -47.1751261231344
	},
	{
		"uf" : "150230105000001",
		"cod_ibge" : "1502301",
		"nome" : "CAPITÃO POÇO",
		"lat" : -1.74618729323752,
		"long" : -47.0628253774009
	},
	{
		"uf" : "150240005000001",
		"cod_ibge" : "1502400",
		"nome" : "CASTANHAL",
		"lat" : -1.29575680504525,
		"long" : -47.9266431419442
	},
	{
		"uf" : "150250905000001",
		"cod_ibge" : "1502509",
		"nome" : "CHAVES",
		"lat" : -0.162437290121912,
		"long" : -49.9893186050714
	},
	{
		"uf" : "150260805000001",
		"cod_ibge" : "1502608",
		"nome" : "COLARES",
		"lat" : -0.932091243957739,
		"long" : -48.2887284319494
	},
	{
		"uf" : "150270705000001",
		"cod_ibge" : "1502707",
		"nome" : "CONCEIÇÃO DO ARAGUAIA",
		"lat" : -8.26486353,
		"long" : -49.2645008124957
	},
	{
		"uf" : "150275605000001",
		"cod_ibge" : "1502756",
		"nome" : "CONCÓRDIA DO PARÁ",
		"lat" : -1.98452146277275,
		"long" : -47.9498869390047
	},
	{
		"uf" : "150276405000001",
		"cod_ibge" : "1502764",
		"nome" : "CUMARU DO NORTE",
		"lat" : -7.81110653689927,
		"long" : -50.7715783775131
	},
	{
		"uf" : "150277205000001",
		"cod_ibge" : "1502772",
		"nome" : "CURIONÓPOLIS",
		"lat" : -6.09681995220666,
		"long" : -49.6022142249504
	},
	{
		"uf" : "150280605000001",
		"cod_ibge" : "1502806",
		"nome" : "CURRALINHO",
		"lat" : -1.80942341966693,
		"long" : -49.7915228470854
	},
	{
		"uf" : "150285505000001",
		"cod_ibge" : "1502855",
		"nome" : "CURUÁ",
		"lat" : -1.88992870430549,
		"long" : -55.1196786087308
	},
	{
		"uf" : "150290505000001",
		"cod_ibge" : "1502905",
		"nome" : "CURUÇÁ",
		"lat" : -0.73249551,
		"long" : -47.8512650859352
	},
	{
		"uf" : "150293905000001",
		"cod_ibge" : "1502939",
		"nome" : "DOM ELISEU",
		"lat" : -4.29077772,
		"long" : -47.5559148859934
	},
	{
		"uf" : "150295405000001",
		"cod_ibge" : "1502954",
		"nome" : "ELDORADO DOS CARAJÁS",
		"lat" : -6.10352516107139,
		"long" : -49.3739519421522
	},
	{
		"uf" : "150300205000001",
		"cod_ibge" : "1503002",
		"nome" : "FARO",
		"lat" : -2.17297524194977,
		"long" : -56.745753017307
	},
	{
		"uf" : "150304405000001",
		"cod_ibge" : "1503044",
		"nome" : "FLORESTA DO ARAGUAIA",
		"lat" : -7.55870087237008,
		"long" : -49.6975784122373
	},
	{
		"uf" : "150307705000001",
		"cod_ibge" : "1503077",
		"nome" : "GARRAFÃO DO NORTE",
		"lat" : -1.93169704310669,
		"long" : -47.0450460172973
	},
	{
		"uf" : "150309305000001",
		"cod_ibge" : "1503093",
		"nome" : "GOIANÉSIA DO PARÁ",
		"lat" : -3.842468,
		"long" : -49.1010449237426
	},
	{
		"uf" : "150320005000001",
		"cod_ibge" : "1503200",
		"nome" : "IGARAPÉ-AÇU",
		"lat" : -1.124322,
		"long" : -47.6223754920271
	},
	{
		"uf" : "150330905000001",
		"cod_ibge" : "1503309",
		"nome" : "IGARAPÉ-MIRI",
		"lat" : -1.983116,
		"long" : -48.9622994689466
	},
	{
		"uf" : "150340805000001",
		"cod_ibge" : "1503408",
		"nome" : "INHANGAPI",
		"lat" : -1.42658198091031,
		"long" : -47.9133927465885
	},
	{
		"uf" : "150345705000001",
		"cod_ibge" : "1503457",
		"nome" : "IPIXUNA DO PARÁ",
		"lat" : -2.5575285,
		"long" : -47.4997175887983
	},
	{
		"uf" : "150350705000001",
		"cod_ibge" : "1503507",
		"nome" : "IRITUIA",
		"lat" : -1.771474995,
		"long" : -47.4407556128483
	},
	{
		"uf" : "150360605000001",
		"cod_ibge" : "1503606",
		"nome" : "ITAITUBA",
		"lat" : -4.26372948,
		"long" : -55.9900488572777
	},
	{
		"uf" : "150370505000001",
		"cod_ibge" : "1503705",
		"nome" : "ITUPIRANGA",
		"lat" : -5.12883702636091,
		"long" : -49.3244258612861
	},
	{
		"uf" : "150375405000001",
		"cod_ibge" : "1503754",
		"nome" : "JACAREACANGA",
		"lat" : -6.22355173138645,
		"long" : -57.7663398583794
	},
	{
		"uf" : "150380405000001",
		"cod_ibge" : "1503804",
		"nome" : "JACUNDÁ",
		"lat" : -4.448405475,
		"long" : -49.1127815625675
	},
	{
		"uf" : "150390305000001",
		"cod_ibge" : "1503903",
		"nome" : "JURUTI",
		"lat" : -2.155252995,
		"long" : -56.0949976884001
	},
	{
		"uf" : "150400005000001",
		"cod_ibge" : "1504000",
		"nome" : "LIMOEIRO DO AJURU",
		"lat" : -1.8919485,
		"long" : -49.3815339012019
	},
	{
		"uf" : "150405905000001",
		"cod_ibge" : "1504059",
		"nome" : "MÃE DO RIO",
		"lat" : -2.04770744079076,
		"long" : -47.5522901794773
	},
	{
		"uf" : "150410905000001",
		"cod_ibge" : "1504109",
		"nome" : "MAGALHÃES BARATA",
		"lat" : -0.795850156021161,
		"long" : -47.5991818964912
	},
	{
		"uf" : "150420805000001",
		"cod_ibge" : "1504208",
		"nome" : "MARABÁ",
		"lat" : -5.35260576313025,
		"long" : -49.1420253334067
	},
	{
		"uf" : "150430705000001",
		"cod_ibge" : "1504307",
		"nome" : "MARACANÃ",
		"lat" : -0.762419459981231,
		"long" : -47.4552679594076
	},
	{
		"uf" : "150440605000001",
		"cod_ibge" : "1504406",
		"nome" : "MARAPANIM",
		"lat" : -0.712150996347819,
		"long" : -47.7025487537677
	},
	{
		"uf" : "150442205000001",
		"cod_ibge" : "1504422",
		"nome" : "MARITUBA",
		"lat" : -1.3464172655758,
		"long" : -48.340535877783
	},
	{
		"uf" : "150445505000001",
		"cod_ibge" : "1504455",
		"nome" : "MEDICILÂNDIA",
		"lat" : -3.44541741218688,
		"long" : -52.8883453507243
	},
	{
		"uf" : "150450505000001",
		"cod_ibge" : "1504505",
		"nome" : "MELGAÇO",
		"lat" : -1.803446698641,
		"long" : -50.7174646976964
	},
	{
		"uf" : "150460405000001",
		"cod_ibge" : "1504604",
		"nome" : "MOCAJUBA",
		"lat" : -2.58287297327153,
		"long" : -49.5090234612729
	},
	{
		"uf" : "150470305000001",
		"cod_ibge" : "1504703",
		"nome" : "MOJU",
		"lat" : -1.885889,
		"long" : -48.7671991273719
	},
	{
		"uf" : "150480205000001",
		"cod_ibge" : "1504802",
		"nome" : "MONTE ALEGRE",
		"lat" : -2.003328,
		"long" : -54.073374725636
	},
	{
		"uf" : "150490105000001",
		"cod_ibge" : "1504901",
		"nome" : "MUANÁ",
		"lat" : -1.5300262083549,
		"long" : -49.2168324424737
	},
	{
		"uf" : "150495005000001",
		"cod_ibge" : "1504950",
		"nome" : "NOVA ESPERANÇA DO PIRIÁ",
		"lat" : -2.2676259890313,
		"long" : -46.9620928836736
	},
	{
		"uf" : "150497605000001",
		"cod_ibge" : "1504976",
		"nome" : "NOVA IPIXUNA",
		"lat" : -4.92308630702649,
		"long" : -49.0798869380164
	},
	{
		"uf" : "150500705000001",
		"cod_ibge" : "1505007",
		"nome" : "NOVA TIMBOTEUA",
		"lat" : -1.20414364746687,
		"long" : -47.3932022764599
	},
	{
		"uf" : "150503105000001",
		"cod_ibge" : "1505031",
		"nome" : "NOVO PROGRESSO",
		"lat" : -7.03483591328812,
		"long" : -55.4198701179784
	},
	{
		"uf" : "150506405000001",
		"cod_ibge" : "1505064",
		"nome" : "NOVO REPARTIMENTO",
		"lat" : -4.2481485,
		"long" : -49.9486382443426
	},
	{
		"uf" : "150510605000001",
		"cod_ibge" : "1505106",
		"nome" : "ÓBIDOS",
		"lat" : -1.90923549588121,
		"long" : -55.5163235097126
	},
	{
		"uf" : "150520505000001",
		"cod_ibge" : "1505205",
		"nome" : "OEIRAS DO PARÁ",
		"lat" : -2.004734,
		"long" : -49.8551061087735
	},
	{
		"uf" : "150530405000001",
		"cod_ibge" : "1505304",
		"nome" : "ORIXIMINÁ",
		"lat" : -1.7637535,
		"long" : -55.8627995152359
	},
	{
		"uf" : "150570005000001",
		"cod_ibge" : "1505700",
		"nome" : "PONTA DE PEDRAS",
		"lat" : -1.3965999975235,
		"long" : -48.8717855600433
	},
	{
		"uf" : "150540305000001",
		"cod_ibge" : "1505403",
		"nome" : "OURÉM",
		"lat" : -1.54894714230244,
		"long" : -47.1176193628501
	},
	{
		"uf" : "150543705000001",
		"cod_ibge" : "1505437",
		"nome" : "OURILÂNDIA DO NORTE",
		"lat" : -6.74061708637736,
		"long" : -51.0908327746816
	},
	{
		"uf" : "150548605000001",
		"cod_ibge" : "1505486",
		"nome" : "PACAJÁ",
		"lat" : -3.8303057037573,
		"long" : -50.6348408304298
	},
	{
		"uf" : "150549405000001",
		"cod_ibge" : "1505494",
		"nome" : "PALESTINA DO PARÁ",
		"lat" : -5.74993410622605,
		"long" : -48.3217937261637
	},
	{
		"uf" : "150550205000001",
		"cod_ibge" : "1505502",
		"nome" : "PARAGOMINAS",
		"lat" : -2.9941905,
		"long" : -47.3569615610519
	},
	{
		"uf" : "150553605000001",
		"cod_ibge" : "1505536",
		"nome" : "PARAUAPEBAS",
		"lat" : -6.07272988763184,
		"long" : -49.900780634297
	},
	{
		"uf" : "150555105000001",
		"cod_ibge" : "1505551",
		"nome" : "PAU D'ARCO",
		"lat" : -7.83679440397357,
		"long" : -50.0482755318998
	},
	{
		"uf" : "150560105000001",
		"cod_ibge" : "1505601",
		"nome" : "PEIXE-BOI",
		"lat" : -1.18956924075654,
		"long" : -47.3179270215591
	},
	{
		"uf" : "150563505000001",
		"cod_ibge" : "1505635",
		"nome" : "PIÇARRA",
		"lat" : -6.45367623455792,
		"long" : -48.8684006672187
	},
	{
		"uf" : "150565005000001",
		"cod_ibge" : "1505650",
		"nome" : "PLACAS",
		"lat" : -3.86731556213536,
		"long" : -54.2169681312654
	},
	{
		"uf" : "150580905000001",
		"cod_ibge" : "1505809",
		"nome" : "PORTEL",
		"lat" : -1.936451,
		"long" : -50.822490442211
	},
	{
		"uf" : "150590805000001",
		"cod_ibge" : "1505908",
		"nome" : "PORTO DE MOZ",
		"lat" : -1.74609008880885,
		"long" : -52.2424769190201
	},
	{
		"uf" : "150600505000001",
		"cod_ibge" : "1506005",
		"nome" : "PRAINHA",
		"lat" : -1.8056945,
		"long" : -53.4818139407895
	},
	{
		"uf" : "150610405000001",
		"cod_ibge" : "1506104",
		"nome" : "PRIMAVERA",
		"lat" : -0.940111515930574,
		"long" : -47.1172512589126
	},
	{
		"uf" : "150611205000001",
		"cod_ibge" : "1506112",
		"nome" : "QUATIPURU",
		"lat" : -0.900115853739325,
		"long" : -47.006786993576
	},
	{
		"uf" : "150613805000001",
		"cod_ibge" : "1506138",
		"nome" : "REDENÇÃO",
		"lat" : -8.0276045,
		"long" : -50.0296418255093
	},
	{
		"uf" : "150616105000001",
		"cod_ibge" : "1506161",
		"nome" : "RIO MARIA",
		"lat" : -7.31111524468815,
		"long" : -50.0464108775224
	},
	{
		"uf" : "150618705000001",
		"cod_ibge" : "1506187",
		"nome" : "RONDON DO PARÁ",
		"lat" : -4.77782172703555,
		"long" : -48.0699737493982
	},
	{
		"uf" : "150619505000001",
		"cod_ibge" : "1506195",
		"nome" : "RURÓPOLIS",
		"lat" : -4.09906539,
		"long" : -54.9058622598691
	},
	{
		"uf" : "150620305000001",
		"cod_ibge" : "1506203",
		"nome" : "SALINÓPOLIS",
		"lat" : -0.623638,
		"long" : -47.3531202631536
	},
	{
		"uf" : "150630205000001",
		"cod_ibge" : "1506302",
		"nome" : "SALVATERRA",
		"lat" : -0.754525974353047,
		"long" : -48.5131865994469
	},
	{
		"uf" : "150635105000001",
		"cod_ibge" : "1506351",
		"nome" : "SANTA BÁRBARA DO PARÁ",
		"lat" : -1.22943946699244,
		"long" : -48.2977406497887
	},
	{
		"uf" : "150640105000001",
		"cod_ibge" : "1506401",
		"nome" : "SANTA CRUZ DO ARARI",
		"lat" : -0.659974125599254,
		"long" : -49.1716155661252
	},
	{
		"uf" : "150650005000001",
		"cod_ibge" : "1506500",
		"nome" : "SANTA ISABEL DO PARÁ",
		"lat" : -1.29739590129143,
		"long" : -48.1630599409531
	},
	{
		"uf" : "150655905000001",
		"cod_ibge" : "1506559",
		"nome" : "SANTA LUZIA DO PARÁ",
		"lat" : -1.51882789138752,
		"long" : -46.9061692026983
	},
	{
		"uf" : "150658305000001",
		"cod_ibge" : "1506583",
		"nome" : "SANTA MARIA DAS BARREIRAS",
		"lat" : -8.87055053969294,
		"long" : -49.7193518572257
	},
	{
		"uf" : "150660905000001",
		"cod_ibge" : "1506609",
		"nome" : "SANTA MARIA DO PARÁ",
		"lat" : -1.3478664592967,
		"long" : -47.5746954138091
	},
	{
		"uf" : "150670805000001",
		"cod_ibge" : "1506708",
		"nome" : "SANTANA DO ARAGUAIA",
		"lat" : -9.329424525,
		"long" : -50.344804321129
	},
	{
		"uf" : "150680705000001",
		"cod_ibge" : "1506807",
		"nome" : "SANTARÉM",
		"lat" : -2.43621332999996,
		"long" : -54.7185701672711
	},
	{
		"uf" : "150690605000001",
		"cod_ibge" : "1506906",
		"nome" : "SANTARÉM NOVO",
		"lat" : -0.928719535783208,
		"long" : -47.400924744868
	},
	{
		"uf" : "150700305000001",
		"cod_ibge" : "1507003",
		"nome" : "SANTO ANTÔNIO DO TAUÁ",
		"lat" : -1.1516925,
		"long" : -48.1324330748457
	},
	{
		"uf" : "150710205000001",
		"cod_ibge" : "1507102",
		"nome" : "SÃO CAETANO DE ODIVELAS",
		"lat" : -0.746617759994861,
		"long" : -48.0258054980831
	},
	{
		"uf" : "150715105000001",
		"cod_ibge" : "1507151",
		"nome" : "SÃO DOMINGOS DO ARAGUAIA",
		"lat" : -5.549841,
		"long" : -48.7203734107844
	},
	{
		"uf" : "150720105000001",
		"cod_ibge" : "1507201",
		"nome" : "SÃO DOMINGOS DO CAPIM",
		"lat" : -1.6758145,
		"long" : -47.7747845692257
	},
	{
		"uf" : "150730005000001",
		"cod_ibge" : "1507300",
		"nome" : "SÃO FÉLIX DO XINGU",
		"lat" : -6.64248327834078,
		"long" : -51.9937825239643
	},
	{
		"uf" : "150740905000001",
		"cod_ibge" : "1507409",
		"nome" : "SÃO FRANCISCO DO PARÁ",
		"lat" : -1.17018878467698,
		"long" : -47.7905146107051
	},
	{
		"uf" : "150745805000001",
		"cod_ibge" : "1507458",
		"nome" : "SÃO GERALDO DO ARAGUAIA",
		"lat" : -6.39895797,
		"long" : -48.5557124861926
	},
	{
		"uf" : "150746605000001",
		"cod_ibge" : "1507466",
		"nome" : "SÃO JOÃO DA PONTA",
		"lat" : -0.851002145269607,
		"long" : -47.9207241656462
	},
	{
		"uf" : "150747405000001",
		"cod_ibge" : "1507474",
		"nome" : "SÃO JOÃO DE PIRABAS",
		"lat" : -0.766442531515371,
		"long" : -47.1726742979205
	},
	{
		"uf" : "150750805000001",
		"cod_ibge" : "1507508",
		"nome" : "SÃO JOÃO DO ARAGUAIA",
		"lat" : -5.35900272441641,
		"long" : -48.7886334020461
	},
	{
		"uf" : "150760705000001",
		"cod_ibge" : "1507607",
		"nome" : "SÃO MIGUEL DO GUAMÁ",
		"lat" : -1.61713591449048,
		"long" : -47.4824089444892
	},
	{
		"uf" : "150770605000001",
		"cod_ibge" : "1507706",
		"nome" : "SÃO SEBASTIÃO DA BOA VISTA",
		"lat" : -1.7188505,
		"long" : -49.5323121746161
	},
	{
		"uf" : "150775505000001",
		"cod_ibge" : "1507755",
		"nome" : "SAPUCAIA",
		"lat" : -6.94285711257384,
		"long" : -49.7035807118843
	},
	{
		"uf" : "150780505000001",
		"cod_ibge" : "1507805",
		"nome" : "SENADOR JOSÉ PORFÍRIO",
		"lat" : -2.59485041832352,
		"long" : -51.9530564180171
	},
	{
		"uf" : "150790405000001",
		"cod_ibge" : "1507904",
		"nome" : "SOURE",
		"lat" : -0.7259255,
		"long" : -48.5160126622773
	},
	{
		"uf" : "150795305000001",
		"cod_ibge" : "1507953",
		"nome" : "TAILÂNDIA",
		"lat" : -2.9370795,
		"long" : -48.9512816295758
	},
	{
		"uf" : "150796105000001",
		"cod_ibge" : "1507961",
		"nome" : "TERRA ALTA",
		"lat" : -1.03482666361629,
		"long" : -47.9078083483744
	},
	{
		"uf" : "150797905000001",
		"cod_ibge" : "1507979",
		"nome" : "TERRA SANTA",
		"lat" : -2.10811447373903,
		"long" : -56.4909047722432
	},
	{
		"uf" : "150800105000001",
		"cod_ibge" : "1508001",
		"nome" : "TOMÉ-AÇU",
		"lat" : -2.41936685526733,
		"long" : -48.146896586572
	},
	{
		"uf" : "150803505000001",
		"cod_ibge" : "1508035",
		"nome" : "TRACUATEUA",
		"lat" : -1.06878405856835,
		"long" : -46.8994783371171
	},
	{
		"uf" : "150805005000001",
		"cod_ibge" : "1508050",
		"nome" : "TRAIRÃO",
		"lat" : -4.69981914969727,
		"long" : -55.9961700349273
	},
	{
		"uf" : "150808405000001",
		"cod_ibge" : "1508084",
		"nome" : "TUCUMÃ",
		"lat" : -6.74997200738229,
		"long" : -51.1395392466358
	},
	{
		"uf" : "150810005000001",
		"cod_ibge" : "1508100",
		"nome" : "TUCURUÍ",
		"lat" : -3.76688908431164,
		"long" : -49.6671843672248
	},
	{
		"uf" : "150812605000001",
		"cod_ibge" : "1508126",
		"nome" : "ULIANÓPOLIS",
		"lat" : -3.75719301,
		"long" : -47.5031447549992
	},
	{
		"uf" : "150815905000001",
		"cod_ibge" : "1508159",
		"nome" : "URUARÁ",
		"lat" : -3.7065285,
		"long" : -53.7370310504594
	},
	{
		"uf" : "150820905000001",
		"cod_ibge" : "1508209",
		"nome" : "VIGIA",
		"lat" : -0.855532573667763,
		"long" : -48.1414985852069
	},
	{
		"uf" : "150830805000001",
		"cod_ibge" : "1508308",
		"nome" : "VISEU",
		"lat" : -1.20327852667727,
		"long" : -46.1387652161496
	},
	{
		"uf" : "150835705000001",
		"cod_ibge" : "1508357",
		"nome" : "VITÓRIA DO XINGU",
		"lat" : -2.8837657102288,
		"long" : -52.0112603538154
	},
	{
		"uf" : "150840705000001",
		"cod_ibge" : "1508407",
		"nome" : "XINGUARA",
		"lat" : -7.10151282714604,
		"long" : -49.9427005843752
	},
	{
		"uf" : "160005505000001",
		"cod_ibge" : "1600055",
		"nome" : "SERRA DO NAVIO",
		"lat" : 0.897841040971924,
		"long" : -52.0035384352918
	},
	{
		"uf" : "160010505000001",
		"cod_ibge" : "1600105",
		"nome" : "AMAPÁ",
		"lat" : 2.05392124468205,
		"long" : -50.7932144702699
	},
	{
		"uf" : "160015405000001",
		"cod_ibge" : "1600154",
		"nome" : "PEDRA BRANCA DO AMAPARÍ",
		"lat" : 0.776882860563944,
		"long" : -51.9465942732743
	},
	{
		"uf" : "160020405000001",
		"cod_ibge" : "1600204",
		"nome" : "CALÇOENE",
		"lat" : 2.49655904456698,
		"long" : -50.9447727342665
	},
	{
		"uf" : "160021205000001",
		"cod_ibge" : "1600212",
		"nome" : "CUTIAS",
		"lat" : 0.97107805541715,
		"long" : -50.8016260298776
	},
	{
		"uf" : "160023805000001",
		"cod_ibge" : "1600238",
		"nome" : "FERREIRA GOMES",
		"lat" : 0.853977393142956,
		"long" : -51.1874290460046
	},
	{
		"uf" : "160025305000001",
		"cod_ibge" : "1600253",
		"nome" : "ITAUBAL",
		"lat" : 0.600653288304609,
		"long" : -50.7001794374183
	},
	{
		"uf" : "160027905000001",
		"cod_ibge" : "1600279",
		"nome" : "LARANJAL DO JARI",
		"lat" : -0.8556645,
		"long" : -52.5390207369393
	},
	{
		"uf" : "160030305000001",
		"cod_ibge" : "1600303",
		"nome" : "MACAPÁ",
		"lat" : 0.03895101,
		"long" : -51.057405457036
	},
	{
		"uf" : "160040205000001",
		"cod_ibge" : "1600402",
		"nome" : "MAZAGÃO",
		"lat" : -0.124396328821101,
		"long" : -51.2860768561013
	},
	{
		"uf" : "160050105000001",
		"cod_ibge" : "1600501",
		"nome" : "OIAPOQUE",
		"lat" : 3.85113073255929,
		"long" : -51.8305525552731
	},
	{
		"uf" : "160053505000001",
		"cod_ibge" : "1600535",
		"nome" : "PORTO GRANDE",
		"lat" : 0.712554701824323,
		"long" : -51.4144488229915
	},
	{
		"uf" : "160055005000001",
		"cod_ibge" : "1600550",
		"nome" : "PRACUÚBA",
		"lat" : 1.74250848707834,
		"long" : -50.7842537212883
	},
	{
		"uf" : "160060005000001",
		"cod_ibge" : "1600600",
		"nome" : "SANTANA",
		"lat" : -0.0383734790956603,
		"long" : -51.1728464650687
	},
	{
		"uf" : "160070905000001",
		"cod_ibge" : "1600709",
		"nome" : "TARTARUGALZINHO",
		"lat" : 1.50984824031107,
		"long" : -50.9127861523142
	},
	{
		"uf" : "160080805000001",
		"cod_ibge" : "1600808",
		"nome" : "VITÓRIA DO JARI",
		"lat" : -0.918977088542799,
		"long" : -52.4196147795718
	},
	{
		"uf" : "170025105000001",
		"cod_ibge" : "1700251",
		"nome" : "ABREULÂNDIA",
		"lat" : -9.62179071199836,
		"long" : -49.1624375554797
	},
	{
		"uf" : "170030105000001",
		"cod_ibge" : "1700301",
		"nome" : "AGUIARNÓPOLIS",
		"lat" : -6.5471708206181,
		"long" : -47.470456587945
	},
	{
		"uf" : "170035005000001",
		"cod_ibge" : "1700350",
		"nome" : "ALIANÇA DO TOCANTINS",
		"lat" : -11.3037430465089,
		"long" : -48.9412400221409
	},
	{
		"uf" : "170040005000001",
		"cod_ibge" : "1700400",
		"nome" : "ALMAS",
		"lat" : -11.5745234694478,
		"long" : -47.1741716842358
	},
	{
		"uf" : "170070705000001",
		"cod_ibge" : "1700707",
		"nome" : "ALVORADA",
		"lat" : -12.4788153208227,
		"long" : -49.12681140673
	},
	{
		"uf" : "170100205000001",
		"cod_ibge" : "1701002",
		"nome" : "ANANÁS",
		"lat" : -6.36281815410008,
		"long" : -48.0797646061948
	},
	{
		"uf" : "170105105000001",
		"cod_ibge" : "1701051",
		"nome" : "ANGICO",
		"lat" : -6.3877527497248,
		"long" : -47.8620778391735
	},
	{
		"uf" : "170110105000001",
		"cod_ibge" : "1701101",
		"nome" : "APARECIDA DO RIO NEGRO",
		"lat" : -9.9558777145605,
		"long" : -47.9766700113511
	},
	{
		"uf" : "170130905000001",
		"cod_ibge" : "1701309",
		"nome" : "ARAGOMINAS",
		"lat" : -7.1643492714437,
		"long" : -48.5234301922917
	},
	{
		"uf" : "170190305000001",
		"cod_ibge" : "1701903",
		"nome" : "ARAGUACEMA",
		"lat" : -8.80180254411115,
		"long" : -49.5618126396073
	},
	{
		"uf" : "170200005000001",
		"cod_ibge" : "1702000",
		"nome" : "ARAGUAÇU",
		"lat" : -12.9255837118616,
		"long" : -49.8286124432782
	},
	{
		"uf" : "170210905000001",
		"cod_ibge" : "1702109",
		"nome" : "ARAGUAÍNA",
		"lat" : -7.19132893965496,
		"long" : -48.2087052518558
	},
	{
		"uf" : "170215805000001",
		"cod_ibge" : "1702158",
		"nome" : "ARAGUANÃ",
		"lat" : -6.58224942002919,
		"long" : -48.6437495469431
	},
	{
		"uf" : "170220805000001",
		"cod_ibge" : "1702208",
		"nome" : "ARAGUATINS",
		"lat" : -5.65058647299995,
		"long" : -48.1235073430294
	},
	{
		"uf" : "170230705000001",
		"cod_ibge" : "1702307",
		"nome" : "ARAPOEMA",
		"lat" : -7.65256973541903,
		"long" : -49.0756373852721
	},
	{
		"uf" : "170240605000001",
		"cod_ibge" : "1702406",
		"nome" : "ARRAIAS",
		"lat" : -12.9344198592593,
		"long" : -46.9461070585534
	},
	{
		"uf" : "170255405000001",
		"cod_ibge" : "1702554",
		"nome" : "AUGUSTINÓPOLIS",
		"lat" : -5.46541429589652,
		"long" : -47.8809567910047
	},
	{
		"uf" : "170270305000001",
		"cod_ibge" : "1702703",
		"nome" : "AURORA DO TOCANTINS",
		"lat" : -12.7084898610615,
		"long" : -46.4070829808607
	},
	{
		"uf" : "170290105000001",
		"cod_ibge" : "1702901",
		"nome" : "AXIXÁ DO TOCANTINS",
		"lat" : -5.62430906592745,
		"long" : -47.7741560325221
	},
	{
		"uf" : "170300805000001",
		"cod_ibge" : "1703008",
		"nome" : "BABAÇULÂNDIA",
		"lat" : -7.20186453206148,
		"long" : -47.7588161270324
	},
	{
		"uf" : "170305705000001",
		"cod_ibge" : "1703057",
		"nome" : "BANDEIRANTES DO TOCANTINS",
		"lat" : -7.76485914125333,
		"long" : -48.5783806048644
	},
	{
		"uf" : "170307305000001",
		"cod_ibge" : "1703073",
		"nome" : "BARRA DO OURO",
		"lat" : -7.69176659865687,
		"long" : -47.6871349692244
	},
	{
		"uf" : "170310705000001",
		"cod_ibge" : "1703107",
		"nome" : "BARROLÂNDIA",
		"lat" : -9.83165336453343,
		"long" : -48.7314605907218
	},
	{
		"uf" : "170320605000001",
		"cod_ibge" : "1703206",
		"nome" : "BERNARDO SAYÃO",
		"lat" : -7.86851248331281,
		"long" : -48.8990543467276
	},
	{
		"uf" : "170330505000001",
		"cod_ibge" : "1703305",
		"nome" : "BOM JESUS DO TOCANTINS",
		"lat" : -8.96334801285521,
		"long" : -48.1663804935405
	},
	{
		"uf" : "170360205000001",
		"cod_ibge" : "1703602",
		"nome" : "BRASILÂNDIA DO TOCANTINS",
		"lat" : -8.38488935107799,
		"long" : -48.485374419124
	},
	{
		"uf" : "170370105000001",
		"cod_ibge" : "1703701",
		"nome" : "BREJINHO DE NAZARÉ",
		"lat" : -11.0108050561865,
		"long" : -48.5586602281507
	},
	{
		"uf" : "170380005000001",
		"cod_ibge" : "1703800",
		"nome" : "BURITI DO TOCANTINS",
		"lat" : -5.31353885638917,
		"long" : -48.223250128075
	},
	{
		"uf" : "170382605000001",
		"cod_ibge" : "1703826",
		"nome" : "CACHOEIRINHA",
		"lat" : -6.11324164650466,
		"long" : -47.914197778559
	},
	{
		"uf" : "170384205000001",
		"cod_ibge" : "1703842",
		"nome" : "CAMPOS LINDOS",
		"lat" : -7.97168139413731,
		"long" : -46.8019743467067
	},
	{
		"uf" : "170386705000001",
		"cod_ibge" : "1703867",
		"nome" : "CARIRI DO TOCANTINS",
		"lat" : -11.8889974638744,
		"long" : -49.1710407289889
	},
	{
		"uf" : "170388305000001",
		"cod_ibge" : "1703883",
		"nome" : "CARMOLÂNDIA",
		"lat" : -7.03147877786106,
		"long" : -48.3959599306274
	},
	{
		"uf" : "170389105000001",
		"cod_ibge" : "1703891",
		"nome" : "CARRASCO BONITO",
		"lat" : -5.32266135485805,
		"long" : -48.0306334265692
	},
	{
		"uf" : "170390905000001",
		"cod_ibge" : "1703909",
		"nome" : "CASEARA",
		"lat" : -9.26740621890348,
		"long" : -49.9486922677787
	},
	{
		"uf" : "170410505000001",
		"cod_ibge" : "1704105",
		"nome" : "CENTENÁRIO",
		"lat" : -8.9584636390938,
		"long" : -47.3383985145873
	},
	{
		"uf" : "170460005000001",
		"cod_ibge" : "1704600",
		"nome" : "CHAPADA DE AREIA",
		"lat" : -10.1419885833334,
		"long" : -49.1831078580314
	},
	{
		"uf" : "170510205000001",
		"cod_ibge" : "1705102",
		"nome" : "CHAPADA DA NATIVIDADE",
		"lat" : -11.6242678313621,
		"long" : -47.7539048918565
	},
	{
		"uf" : "170550805000001",
		"cod_ibge" : "1705508",
		"nome" : "COLINAS DO TOCANTINS",
		"lat" : -8.05462467549995,
		"long" : -48.4815945437489
	},
	{
		"uf" : "170555705000001",
		"cod_ibge" : "1705557",
		"nome" : "COMBINADO",
		"lat" : -12.8186076720311,
		"long" : -46.5520723402661
	},
	{
		"uf" : "170560705000001",
		"cod_ibge" : "1705607",
		"nome" : "CONCEIÇÃO DO TOCANTINS",
		"lat" : -12.2172777669654,
		"long" : -47.292868810807
	},
	{
		"uf" : "170600105000001",
		"cod_ibge" : "1706001",
		"nome" : "COUTO MAGALHÃES",
		"lat" : -8.35511836963524,
		"long" : -49.176571570853
	},
	{
		"uf" : "170610005000001",
		"cod_ibge" : "1706100",
		"nome" : "CRISTALÂNDIA",
		"lat" : -10.5907246371177,
		"long" : -49.1863002912612
	},
	{
		"uf" : "170625805000001",
		"cod_ibge" : "1706258",
		"nome" : "CRIXÁS DO TOCANTINS",
		"lat" : -11.1042742936043,
		"long" : -48.9155138256477
	},
	{
		"uf" : "170650605000001",
		"cod_ibge" : "1706506",
		"nome" : "DARCINÓPOLIS",
		"lat" : -6.71235100148176,
		"long" : -47.7521611102799
	},
	{
		"uf" : "170700905000001",
		"cod_ibge" : "1707009",
		"nome" : "DIANÓPOLIS",
		"lat" : -11.625231878065,
		"long" : -46.8204090669435
	},
	{
		"uf" : "170710805000001",
		"cod_ibge" : "1707108",
		"nome" : "DIVINÓPOLIS DO TOCANTINS",
		"lat" : -9.79530114022946,
		"long" : -49.2054131873503
	},
	{
		"uf" : "170720705000001",
		"cod_ibge" : "1707207",
		"nome" : "DOIS IRMÃOS DO TOCANTINS",
		"lat" : -9.26129670979711,
		"long" : -49.0673386442723
	},
	{
		"uf" : "170730605000001",
		"cod_ibge" : "1707306",
		"nome" : "DUERÉ",
		"lat" : -11.3412854167798,
		"long" : -49.2658759161628
	},
	{
		"uf" : "170740505000001",
		"cod_ibge" : "1707405",
		"nome" : "ESPERANTINA",
		"lat" : -5.36660805940451,
		"long" : -48.5441476004124
	},
	{
		"uf" : "170755305000001",
		"cod_ibge" : "1707553",
		"nome" : "FÁTIMA",
		"lat" : -10.7525087280848,
		"long" : -48.8989826586808
	},
	{
		"uf" : "170765205000001",
		"cod_ibge" : "1707652",
		"nome" : "FIGUEIRÓPOLIS",
		"lat" : -12.1367799832225,
		"long" : -49.1738467307434
	},
	{
		"uf" : "170770205000001",
		"cod_ibge" : "1707702",
		"nome" : "FILADÉLFIA",
		"lat" : -7.3376119059308,
		"long" : -47.484964141532
	},
	{
		"uf" : "170820505000001",
		"cod_ibge" : "1708205",
		"nome" : "FORMOSO DO ARAGUAIA",
		"lat" : -11.8051419686495,
		"long" : -49.5268603629125
	},
	{
		"uf" : "170825405000001",
		"cod_ibge" : "1708254",
		"nome" : "FORTALEZA DO TABOCÃO",
		"lat" : -9.05896530114982,
		"long" : -48.5174264210488
	},
	{
		"uf" : "170830405000001",
		"cod_ibge" : "1708304",
		"nome" : "GOIANORTE",
		"lat" : -8.77052080482939,
		"long" : -48.9368901923611
	},
	{
		"uf" : "170900505000001",
		"cod_ibge" : "1709005",
		"nome" : "GOIATINS",
		"lat" : -7.7091723901957,
		"long" : -47.3154354891583
	},
	{
		"uf" : "170930205000001",
		"cod_ibge" : "1709302",
		"nome" : "GUARAÍ",
		"lat" : -8.83616565750443,
		"long" : -48.5086406064702
	},
	{
		"uf" : "170950005000001",
		"cod_ibge" : "1709500",
		"nome" : "GURUPI",
		"lat" : -11.72977232286,
		"long" : -49.0714774689303
	},
	{
		"uf" : "170980705000001",
		"cod_ibge" : "1709807",
		"nome" : "IPUEIRAS",
		"lat" : -11.2462886215917,
		"long" : -48.4519262288947
	},
	{
		"uf" : "171050805000001",
		"cod_ibge" : "1710508",
		"nome" : "ITACAJÁ",
		"lat" : -8.39098055231856,
		"long" : -47.768112402678
	},
	{
		"uf" : "171070605000001",
		"cod_ibge" : "1710706",
		"nome" : "ITAGUATINS",
		"lat" : -5.77538508840222,
		"long" : -47.4799359489833
	},
	{
		"uf" : "171090405000001",
		"cod_ibge" : "1710904",
		"nome" : "ITAPIRATINS",
		"lat" : -8.38432959344297,
		"long" : -48.1111996094691
	},
	{
		"uf" : "171110005000001",
		"cod_ibge" : "1711100",
		"nome" : "ITAPORÃ DO TOCANTINS",
		"lat" : -8.56882861156054,
		"long" : -48.6932637032248
	},
	{
		"uf" : "171150605000001",
		"cod_ibge" : "1711506",
		"nome" : "JAÚ DO TOCANTINS",
		"lat" : -12.6529263692706,
		"long" : -48.5946082927248
	},
	{
		"uf" : "171180305000001",
		"cod_ibge" : "1711803",
		"nome" : "JUARINA",
		"lat" : -8.11742396760678,
		"long" : -49.0986431854272
	},
	{
		"uf" : "171190205000001",
		"cod_ibge" : "1711902",
		"nome" : "LAGOA DA CONFUSÃO",
		"lat" : -10.7886955575897,
		"long" : -49.620085339146
	},
	{
		"uf" : "171195105000001",
		"cod_ibge" : "1711951",
		"nome" : "LAGOA DO TOCANTINS",
		"lat" : -10.2968866969998,
		"long" : -47.5614466302738
	},
	{
		"uf" : "171200905000001",
		"cod_ibge" : "1712009",
		"nome" : "LAJEADO",
		"lat" : -9.74468243573559,
		"long" : -48.3585039506901
	},
	{
		"uf" : "171215705000001",
		"cod_ibge" : "1712157",
		"nome" : "LAVANDEIRA",
		"lat" : -12.7916587876518,
		"long" : -46.5066757157435
	},
	{
		"uf" : "171240505000001",
		"cod_ibge" : "1712405",
		"nome" : "LIZARDA",
		"lat" : -9.59457028780967,
		"long" : -46.6751654558461
	},
	{
		"uf" : "171245405000001",
		"cod_ibge" : "1712454",
		"nome" : "LUZINÓPOLIS",
		"lat" : -6.19398966023577,
		"long" : -47.856828041414
	},
	{
		"uf" : "171250405000001",
		"cod_ibge" : "1712504",
		"nome" : "MARIANÓPOLIS DO TOCANTINS",
		"lat" : -9.79888035935058,
		"long" : -49.6510339944378
	},
	{
		"uf" : "171270205000001",
		"cod_ibge" : "1712702",
		"nome" : "MATEIROS",
		"lat" : -10.5444288460778,
		"long" : -46.412465743092
	},
	{
		"uf" : "171280105000001",
		"cod_ibge" : "1712801",
		"nome" : "MAURILÂNDIA DO TOCANTINS",
		"lat" : -5.95256642121045,
		"long" : -47.5048799601751
	},
	{
		"uf" : "171320505000001",
		"cod_ibge" : "1713205",
		"nome" : "MIRACEMA DO TOCANTINS",
		"lat" : -9.56834607764652,
		"long" : -48.3879913115193
	},
	{
		"uf" : "171330405000001",
		"cod_ibge" : "1713304",
		"nome" : "MIRANORTE",
		"lat" : -9.51740473109312,
		"long" : -48.5926319369139
	},
	{
		"uf" : "171360105000001",
		"cod_ibge" : "1713601",
		"nome" : "MONTE DO CARMO",
		"lat" : -10.7635421946238,
		"long" : -48.1104200299112
	},
	{
		"uf" : "171370005000001",
		"cod_ibge" : "1713700",
		"nome" : "MONTE SANTO DO TOCANTINS",
		"lat" : -10.005591431794,
		"long" : -48.9908906033935
	},
	{
		"uf" : "171380905000001",
		"cod_ibge" : "1713809",
		"nome" : "PALMEIRAS DO TOCANTINS",
		"lat" : -6.61186233456171,
		"long" : -47.5586835262825
	},
	{
		"uf" : "171395705000001",
		"cod_ibge" : "1713957",
		"nome" : "MURICILÂNDIA",
		"lat" : -7.13851928516033,
		"long" : -48.6067452770067
	},
	{
		"uf" : "171420305000001",
		"cod_ibge" : "1714203",
		"nome" : "NATIVIDADE",
		"lat" : -11.7053573825042,
		"long" : -47.7272575338232
	},
	{
		"uf" : "171430205000001",
		"cod_ibge" : "1714302",
		"nome" : "NAZARÉ",
		"lat" : -6.37255796928561,
		"long" : -47.6669771825263
	},
	{
		"uf" : "171488005000001",
		"cod_ibge" : "1714880",
		"nome" : "NOVA OLINDA",
		"lat" : -7.6333149106925,
		"long" : -48.4248067900164
	},
	{
		"uf" : "171500205000001",
		"cod_ibge" : "1715002",
		"nome" : "NOVA ROSALÂNDIA",
		"lat" : -10.5668711393323,
		"long" : -48.9061807245023
	},
	{
		"uf" : "171510105000001",
		"cod_ibge" : "1715101",
		"nome" : "NOVO ACORDO",
		"lat" : -9.96848646570169,
		"long" : -47.6681483922167
	},
	{
		"uf" : "171515005000001",
		"cod_ibge" : "1715150",
		"nome" : "NOVO ALEGRE",
		"lat" : -12.9099386744081,
		"long" : -46.5772973536675
	},
	{
		"uf" : "171525905000001",
		"cod_ibge" : "1715259",
		"nome" : "NOVO JARDIM",
		"lat" : -11.815875050149,
		"long" : -46.6307872958899
	},
	{
		"uf" : "171550705000001",
		"cod_ibge" : "1715507",
		"nome" : "OLIVEIRA DE FÁTIMA",
		"lat" : -10.7083627090618,
		"long" : -48.9074015689032
	},
	{
		"uf" : "171570505000001",
		"cod_ibge" : "1715705",
		"nome" : "PALMEIRANTE",
		"lat" : -7.85756137614505,
		"long" : -47.9342497089842
	},
	{
		"uf" : "171575405000001",
		"cod_ibge" : "1715754",
		"nome" : "PALMEIRÓPOLIS",
		"lat" : -13.0398884336692,
		"long" : -48.4134139552316
	},
	{
		"uf" : "171610905000001",
		"cod_ibge" : "1716109",
		"nome" : "PARAÍSO DO TOCANTINS",
		"lat" : -10.1712207549999,
		"long" : -48.8866300840169
	},
	{
		"uf" : "171620805000001",
		"cod_ibge" : "1716208",
		"nome" : "PARANÃ",
		"lat" : -12.6204814887183,
		"long" : -47.8840837284426
	},
	{
		"uf" : "171630705000001",
		"cod_ibge" : "1716307",
		"nome" : "PAU D'ARCO",
		"lat" : -7.53999835569997,
		"long" : -49.3633064810091
	},
	{
		"uf" : "171650505000001",
		"cod_ibge" : "1716505",
		"nome" : "PEDRO AFONSO",
		"lat" : -8.96444959242294,
		"long" : -48.1775561127387
	},
	{
		"uf" : "171660405000001",
		"cod_ibge" : "1716604",
		"nome" : "PEIXE",
		"lat" : -12.029773830853,
		"long" : -48.537810626336
	},
	{
		"uf" : "171665305000001",
		"cod_ibge" : "1716653",
		"nome" : "PEQUIZEIRO",
		"lat" : -8.59334065444845,
		"long" : -48.9351798669158
	},
	{
		"uf" : "171670305000001",
		"cod_ibge" : "1716703",
		"nome" : "COLMÉIA",
		"lat" : -8.72937180681859,
		"long" : -48.7570665856948
	},
	{
		"uf" : "171700805000001",
		"cod_ibge" : "1717008",
		"nome" : "PINDORAMA DO TOCANTINS",
		"lat" : -11.1382025846808,
		"long" : -47.5756877172877
	},
	{
		"uf" : "171720605000001",
		"cod_ibge" : "1717206",
		"nome" : "PIRAQUÊ",
		"lat" : -6.76977703340735,
		"long" : -48.2937073910932
	},
	{
		"uf" : "171750305000001",
		"cod_ibge" : "1717503",
		"nome" : "PIUM",
		"lat" : -10.4409311179305,
		"long" : -49.1666580115747
	},
	{
		"uf" : "171780005000001",
		"cod_ibge" : "1717800",
		"nome" : "PONTE ALTA DO BOM JESUS",
		"lat" : -12.0878129084344,
		"long" : -46.4695867923952
	},
	{
		"uf" : "171790905000001",
		"cod_ibge" : "1717909",
		"nome" : "PONTE ALTA DO TOCANTINS",
		"lat" : -10.7406728486815,
		"long" : -47.5411803583019
	},
	{
		"uf" : "171800605000001",
		"cod_ibge" : "1718006",
		"nome" : "PORTO ALEGRE DO TOCANTINS",
		"lat" : -11.6072590990885,
		"long" : -47.0474256004295
	},
	{
		"uf" : "171820405000001",
		"cod_ibge" : "1718204",
		"nome" : "PORTO NACIONAL",
		"lat" : -10.708569917,
		"long" : -48.4121534584309
	},
	{
		"uf" : "171830305000001",
		"cod_ibge" : "1718303",
		"nome" : "PRAIA NORTE",
		"lat" : -5.39671287737827,
		"long" : -47.8147317333423
	},
	{
		"uf" : "171840205000001",
		"cod_ibge" : "1718402",
		"nome" : "PRESIDENTE KENNEDY",
		"lat" : -8.52996082761918,
		"long" : -48.504330670109
	},
	{
		"uf" : "171845105000001",
		"cod_ibge" : "1718451",
		"nome" : "PUGMIL",
		"lat" : -10.4243071562468,
		"long" : -48.8942204487831
	},
	{
		"uf" : "171850105000001",
		"cod_ibge" : "1718501",
		"nome" : "RECURSOLÂNDIA",
		"lat" : -8.73536045388012,
		"long" : -47.2380411950208
	},
	{
		"uf" : "171855005000001",
		"cod_ibge" : "1718550",
		"nome" : "RIACHINHO",
		"lat" : -6.44221138769741,
		"long" : -48.141045502038
	},
	{
		"uf" : "171865905000001",
		"cod_ibge" : "1718659",
		"nome" : "RIO DA CONCEIÇÃO",
		"lat" : -11.404940023899,
		"long" : -46.8803997045722
	},
	{
		"uf" : "171870905000001",
		"cod_ibge" : "1718709",
		"nome" : "RIO DOS BOIS",
		"lat" : -9.3437422386879,
		"long" : -48.5330479716014
	},
	{
		"uf" : "171875805000001",
		"cod_ibge" : "1718758",
		"nome" : "RIO SONO",
		"lat" : -9.34778933411611,
		"long" : -47.8999416391395
	},
	{
		"uf" : "171880805000001",
		"cod_ibge" : "1718808",
		"nome" : "SAMPAIO",
		"lat" : -5.3492956164967,
		"long" : -47.8757924571994
	},
	{
		"uf" : "171884005000001",
		"cod_ibge" : "1718840",
		"nome" : "SANDOLÂNDIA",
		"lat" : -12.5416001674833,
		"long" : -49.9333881543012
	},
	{
		"uf" : "171886505000001",
		"cod_ibge" : "1718865",
		"nome" : "SANTA FÉ DO ARAGUAIA",
		"lat" : -7.1499363850312,
		"long" : -48.6939418034376
	},
	{
		"uf" : "171888105000001",
		"cod_ibge" : "1718881",
		"nome" : "SANTA MARIA DO TOCANTINS",
		"lat" : -8.77497644926651,
		"long" : -47.7452704192246
	},
	{
		"uf" : "171889905000001",
		"cod_ibge" : "1718899",
		"nome" : "SANTA RITA DO TOCANTINS",
		"lat" : -10.8664553694029,
		"long" : -48.909294007359
	},
	{
		"uf" : "171890705000001",
		"cod_ibge" : "1718907",
		"nome" : "SANTA ROSA DO TOCANTINS",
		"lat" : -11.4514039985494,
		"long" : -48.1199542217524
	},
	{
		"uf" : "171900405000001",
		"cod_ibge" : "1719004",
		"nome" : "SANTA TEREZA DO TOCANTINS",
		"lat" : -10.2823615278187,
		"long" : -47.8062883215081
	},
	{
		"uf" : "172000205000001",
		"cod_ibge" : "1720002",
		"nome" : "SANTA TEREZINHA DO TOCANTINS",
		"lat" : -6.43699761844425,
		"long" : -47.6842853630081
	},
	{
		"uf" : "172010105000001",
		"cod_ibge" : "1720101",
		"nome" : "SÃO BENTO DO TOCANTINS",
		"lat" : -6.04499925719239,
		"long" : -47.9193922870534
	},
	{
		"uf" : "172015005000001",
		"cod_ibge" : "1720150",
		"nome" : "SÃO FÉLIX DO TOCANTINS",
		"lat" : -10.1732858539628,
		"long" : -46.6549808310123
	},
	{
		"uf" : "172020005000001",
		"cod_ibge" : "1720200",
		"nome" : "SÃO MIGUEL DO TOCANTINS",
		"lat" : -5.55381952879429,
		"long" : -47.5730023393731
	},
	{
		"uf" : "172025905000001",
		"cod_ibge" : "1720259",
		"nome" : "SÃO SALVADOR DO TOCANTINS",
		"lat" : -12.7474334144954,
		"long" : -48.2320849916811
	},
	{
		"uf" : "172030905000001",
		"cod_ibge" : "1720309",
		"nome" : "SÃO SEBASTIÃO DO TOCANTINS",
		"lat" : -5.25896145373507,
		"long" : -48.2038341490288
	},
	{
		"uf" : "172049905000001",
		"cod_ibge" : "1720499",
		"nome" : "SÃO VALÉRIO",
		"lat" : -11.9730674594797,
		"long" : -48.2329484333802
	},
	{
		"uf" : "172065505000001",
		"cod_ibge" : "1720655",
		"nome" : "SILVANÓPOLIS",
		"lat" : -11.1498613085628,
		"long" : -48.1798241355321
	},
	{
		"uf" : "172080405000001",
		"cod_ibge" : "1720804",
		"nome" : "SÍTIO NOVO DO TOCANTINS",
		"lat" : -5.60472685665309,
		"long" : -47.6374226504604
	},
	{
		"uf" : "172085305000001",
		"cod_ibge" : "1720853",
		"nome" : "SUCUPIRA",
		"lat" : -11.98622151086,
		"long" : -48.9111262826871
	},
	{
		"uf" : "172090305000001",
		"cod_ibge" : "1720903",
		"nome" : "TAGUATINGA",
		"lat" : -12.3961417386813,
		"long" : -46.4387317008831
	},
	{
		"uf" : "172093705000001",
		"cod_ibge" : "1720937",
		"nome" : "TAIPAS DO TOCANTINS",
		"lat" : -12.1928372090542,
		"long" : -46.9845717959323
	},
	{
		"uf" : "172097805000001",
		"cod_ibge" : "1720978",
		"nome" : "TALISMÃ",
		"lat" : -12.7875384068603,
		"long" : -49.0911184339334
	},
	{
		"uf" : "172100005000001",
		"cod_ibge" : "1721000",
		"nome" : "PALMAS",
		"lat" : -10.1632533267928,
		"long" : -48.3510437082462
	},
	{
		"uf" : "172110905000001",
		"cod_ibge" : "1721109",
		"nome" : "TOCANTÍNIA",
		"lat" : -9.55814773400572,
		"long" : -48.3758796714267
	},
	{
		"uf" : "172120805000001",
		"cod_ibge" : "1721208",
		"nome" : "TOCANTINÓPOLIS",
		"lat" : -6.32563437602796,
		"long" : -47.4274129286927
	},
	{
		"uf" : "172125705000001",
		"cod_ibge" : "1721257",
		"nome" : "TUPIRAMA",
		"lat" : -8.98056954941714,
		"long" : -48.2066848030641
	},
	{
		"uf" : "172130705000001",
		"cod_ibge" : "1721307",
		"nome" : "TUPIRATINS",
		"lat" : -8.39552999695801,
		"long" : -48.1229957408688
	},
	{
		"uf" : "172208105000001",
		"cod_ibge" : "1722081",
		"nome" : "WANDERLÂNDIA",
		"lat" : -6.8501255166885,
		"long" : -47.9562677260283
	},
	{
		"uf" : "172210705000001",
		"cod_ibge" : "1722107",
		"nome" : "XAMBIOÁ",
		"lat" : -6.41188502017984,
		"long" : -48.531601072817
	},
	{
		"uf" : "210005505000001",
		"cod_ibge" : "2100055",
		"nome" : "AÇAILÂNDIA",
		"lat" : -4.95137700016248,
		"long" : -47.5066645931119
	},
	{
		"uf" : "210010505000001",
		"cod_ibge" : "2100105",
		"nome" : "AFONSO CUNHA",
		"lat" : -4.13501547687008,
		"long" : -43.3208690039685
	},
	{
		"uf" : "210015405000001",
		"cod_ibge" : "2100154",
		"nome" : "ÁGUA DOCE DO MARANHÃO",
		"lat" : -2.84027827913681,
		"long" : -42.1155512017213
	},
	{
		"uf" : "210020405000001",
		"cod_ibge" : "2100204",
		"nome" : "ALCÂNTARA",
		"lat" : -2.40327652507917,
		"long" : -44.4170125372846
	},
	{
		"uf" : "210030305000001",
		"cod_ibge" : "2100303",
		"nome" : "ALDEIAS ALTAS",
		"lat" : -4.63077949515206,
		"long" : -43.4687348529398
	},
	{
		"uf" : "210040205000001",
		"cod_ibge" : "2100402",
		"nome" : "ALTAMIRA DO MARANHÃO",
		"lat" : -4.16226926685315,
		"long" : -45.4646758311604
	},
	{
		"uf" : "210043605000001",
		"cod_ibge" : "2100436",
		"nome" : "ALTO ALEGRE DO MARANHÃO",
		"lat" : -4.207227,
		"long" : -44.4482474945232
	},
	{
		"uf" : "210047705000001",
		"cod_ibge" : "2100477",
		"nome" : "ALTO ALEGRE DO PINDARÉ",
		"lat" : -3.66517037445328,
		"long" : -45.8420796161705
	},
	{
		"uf" : "210050105000001",
		"cod_ibge" : "2100501",
		"nome" : "ALTO PARNAÍBA",
		"lat" : -9.10836593219112,
		"long" : -45.9273440133384
	},
	{
		"uf" : "210055005000001",
		"cod_ibge" : "2100550",
		"nome" : "AMAPÁ DO MARANHÃO",
		"lat" : -1.68092149512179,
		"long" : -46.0091799003875
	},
	{
		"uf" : "210060005000001",
		"cod_ibge" : "2100600",
		"nome" : "AMARANTE DO MARANHÃO",
		"lat" : -5.55766200018214,
		"long" : -46.7506375454972
	},
	{
		"uf" : "210070905000001",
		"cod_ibge" : "2100709",
		"nome" : "ANAJATUBA",
		"lat" : -3.25755484212724,
		"long" : -44.6206700277629
	},
	{
		"uf" : "210080805000001",
		"cod_ibge" : "2100808",
		"nome" : "ANAPURUS",
		"lat" : -3.66703466234686,
		"long" : -43.1057925096893
	},
	{
		"uf" : "210083205000001",
		"cod_ibge" : "2100832",
		"nome" : "APICUM-AÇU",
		"lat" : -1.53059157775486,
		"long" : -45.0766520734486
	},
	{
		"uf" : "210087305000001",
		"cod_ibge" : "2100873",
		"nome" : "ARAGUANÃ",
		"lat" : -2.94912562327705,
		"long" : -45.6687944761006
	},
	{
		"uf" : "210090705000001",
		"cod_ibge" : "2100907",
		"nome" : "ARAIOSES",
		"lat" : -2.88925584643306,
		"long" : -41.8991394498654
	},
	{
		"uf" : "210095605000001",
		"cod_ibge" : "2100956",
		"nome" : "ARAME",
		"lat" : -4.886081505,
		"long" : -46.0136362778351
	},
	{
		"uf" : "210100405000001",
		"cod_ibge" : "2101004",
		"nome" : "ARARI",
		"lat" : -3.45917097011381,
		"long" : -44.7788346547106
	},
	{
		"uf" : "210110305000001",
		"cod_ibge" : "2101103",
		"nome" : "AXIXÁ",
		"lat" : -2.83779683713212,
		"long" : -44.0545858090773
	},
	{
		"uf" : "210120205000001",
		"cod_ibge" : "2101202",
		"nome" : "BACABAL",
		"lat" : -4.23152462978051,
		"long" : -44.7815559640891
	},
	{
		"uf" : "210125105000001",
		"cod_ibge" : "2101251",
		"nome" : "BACABEIRA",
		"lat" : -2.98582477877569,
		"long" : -44.3154229865671
	},
	{
		"uf" : "210130105000001",
		"cod_ibge" : "2101301",
		"nome" : "BACURI",
		"lat" : -1.72404631847323,
		"long" : -45.1373489396265
	},
	{
		"uf" : "210135005000001",
		"cod_ibge" : "2101350",
		"nome" : "BACURITUBA",
		"lat" : -2.71087197652061,
		"long" : -44.7357420061579
	},
	{
		"uf" : "210140005000001",
		"cod_ibge" : "2101400",
		"nome" : "BALSAS",
		"lat" : -7.53116999024552,
		"long" : -46.0389926733405
	},
	{
		"uf" : "210150905000001",
		"cod_ibge" : "2101509",
		"nome" : "BARÃO DE GRAJAÚ",
		"lat" : -6.75895520558046,
		"long" : -43.0264526994269
	},
	{
		"uf" : "210160805000001",
		"cod_ibge" : "2101608",
		"nome" : "BARRA DO CORDA",
		"lat" : -5.5083395,
		"long" : -45.239011016111
	},
	{
		"uf" : "210170705000001",
		"cod_ibge" : "2101707",
		"nome" : "BARREIRINHAS",
		"lat" : -2.75008594875811,
		"long" : -42.8278025132041
	},
	{
		"uf" : "210173105000001",
		"cod_ibge" : "2101731",
		"nome" : "BELÁGUA",
		"lat" : -3.15677222752965,
		"long" : -43.510061642741
	},
	{
		"uf" : "210177205000001",
		"cod_ibge" : "2101772",
		"nome" : "BELA VISTA DO MARANHÃO",
		"lat" : -3.73773324990828,
		"long" : -45.2482458781849
	},
	{
		"uf" : "210180605000001",
		"cod_ibge" : "2101806",
		"nome" : "BENEDITO LEITE",
		"lat" : -7.2187997953852,
		"long" : -44.5598567990095
	},
	{
		"uf" : "210190505000001",
		"cod_ibge" : "2101905",
		"nome" : "BEQUIMÃO",
		"lat" : -2.4620629950811,
		"long" : -44.7857301568673
	},
	{
		"uf" : "210193905000001",
		"cod_ibge" : "2101939",
		"nome" : "BERNARDO DO MEARIM",
		"lat" : -4.63028749079229,
		"long" : -44.7643231034878
	},
	{
		"uf" : "210197005000001",
		"cod_ibge" : "2101970",
		"nome" : "BOA VISTA DO GURUPI",
		"lat" : -1.79329613579879,
		"long" : -46.2987100525274
	},
	{
		"uf" : "210200205000001",
		"cod_ibge" : "2102002",
		"nome" : "BOM JARDIM",
		"lat" : -3.54416097785572,
		"long" : -45.6018893890511
	},
	{
		"uf" : "210203605000001",
		"cod_ibge" : "2102036",
		"nome" : "BOM JESUS DAS SELVAS",
		"lat" : -4.48996835310692,
		"long" : -46.8532412231489
	},
	{
		"uf" : "210207705000001",
		"cod_ibge" : "2102077",
		"nome" : "BOM LUGAR",
		"lat" : -4.37550960146424,
		"long" : -45.0311078563238
	},
	{
		"uf" : "210210105000001",
		"cod_ibge" : "2102101",
		"nome" : "BREJO",
		"lat" : -3.679178,
		"long" : -42.7508478268196
	},
	{
		"uf" : "210215005000001",
		"cod_ibge" : "2102150",
		"nome" : "BREJO DE AREIA",
		"lat" : -4.33062989749501,
		"long" : -45.5820952717813
	},
	{
		"uf" : "210220005000001",
		"cod_ibge" : "2102200",
		"nome" : "BURITI",
		"lat" : -3.9455715,
		"long" : -42.9251061777803
	},
	{
		"uf" : "210230905000001",
		"cod_ibge" : "2102309",
		"nome" : "BURITI BRAVO",
		"lat" : -5.83528813214674,
		"long" : -43.8356215415106
	},
	{
		"uf" : "210232505000001",
		"cod_ibge" : "2102325",
		"nome" : "BURITICUPU",
		"lat" : -4.32594772630155,
		"long" : -46.451495319051
	},
	{
		"uf" : "210235805000001",
		"cod_ibge" : "2102358",
		"nome" : "BURITIRANA",
		"lat" : -5.58891514171156,
		"long" : -47.0172250932177
	},
	{
		"uf" : "210237405000001",
		"cod_ibge" : "2102374",
		"nome" : "CACHOEIRA GRANDE",
		"lat" : -2.93192103905761,
		"long" : -44.0596850157832
	},
	{
		"uf" : "210240805000001",
		"cod_ibge" : "2102408",
		"nome" : "CAJAPIÓ",
		"lat" : -2.88288220315752,
		"long" : -44.6733771645862
	},
	{
		"uf" : "210250705000001",
		"cod_ibge" : "2102507",
		"nome" : "CAJARI",
		"lat" : -3.32386883091692,
		"long" : -45.0079653349663
	},
	{
		"uf" : "210255605000001",
		"cod_ibge" : "2102556",
		"nome" : "CAMPESTRE DO MARANHÃO",
		"lat" : -6.16471664583519,
		"long" : -47.3676328633342
	},
	{
		"uf" : "210260605000001",
		"cod_ibge" : "2102606",
		"nome" : "CÂNDIDO MENDES",
		"lat" : -1.453889108528,
		"long" : -45.7372683655917
	},
	{
		"uf" : "210270505000001",
		"cod_ibge" : "2102705",
		"nome" : "CANTANHEDE",
		"lat" : -3.62836431187274,
		"long" : -44.381816135839
	},
	{
		"uf" : "210275405000001",
		"cod_ibge" : "2102754",
		"nome" : "CAPINZAL DO NORTE",
		"lat" : -4.7212453887722,
		"long" : -44.3304362519955
	},
	{
		"uf" : "210280405000001",
		"cod_ibge" : "2102804",
		"nome" : "CAROLINA",
		"lat" : -7.33078300523913,
		"long" : -47.4700918028279
	},
	{
		"uf" : "210290305000001",
		"cod_ibge" : "2102903",
		"nome" : "CARUTAPERA",
		"lat" : -1.200602,
		"long" : -46.023150834605
	},
	{
		"uf" : "210300005000001",
		"cod_ibge" : "2103000",
		"nome" : "CAXIAS",
		"lat" : -4.86167499015957,
		"long" : -43.3585394285192
	},
	{
		"uf" : "210310905000001",
		"cod_ibge" : "2103109",
		"nome" : "CEDRAL",
		"lat" : -1.99791592557159,
		"long" : -44.5307895278055
	},
	{
		"uf" : "210312505000001",
		"cod_ibge" : "2103125",
		"nome" : "CENTRAL DO MARANHÃO",
		"lat" : -2.19131390761779,
		"long" : -44.8318437024986
	},
	{
		"uf" : "210315805000001",
		"cod_ibge" : "2103158",
		"nome" : "CENTRO DO GUILHERME",
		"lat" : -2.4569850818082,
		"long" : -46.0399601131872
	},
	{
		"uf" : "210317405000001",
		"cod_ibge" : "2103174",
		"nome" : "CENTRO NOVO DO MARANHÃO",
		"lat" : -2.14429169855839,
		"long" : -46.1284089549781
	},
	{
		"uf" : "210320805000001",
		"cod_ibge" : "2103208",
		"nome" : "CHAPADINHA",
		"lat" : -3.74002452,
		"long" : -43.361120781752
	},
	{
		"uf" : "210325705000001",
		"cod_ibge" : "2103257",
		"nome" : "CIDELÂNDIA",
		"lat" : -5.17742104721159,
		"long" : -47.7842327756716
	},
	{
		"uf" : "210330705000001",
		"cod_ibge" : "2103307",
		"nome" : "CODÓ",
		"lat" : -4.45133750014621,
		"long" : -43.8860802350324
	},
	{
		"uf" : "210340605000001",
		"cod_ibge" : "2103406",
		"nome" : "COELHO NETO",
		"lat" : -4.25473750013981,
		"long" : -43.0140136155495
	},
	{
		"uf" : "210350505000001",
		"cod_ibge" : "2103505",
		"nome" : "COLINAS",
		"lat" : -6.02736552019732,
		"long" : -44.2497802305352
	},
	{
		"uf" : "210355405000001",
		"cod_ibge" : "2103554",
		"nome" : "CONCEIÇÃO DO LAGO-AÇU",
		"lat" : -3.84111845785575,
		"long" : -44.9030159051796
	},
	{
		"uf" : "210360405000001",
		"cod_ibge" : "2103604",
		"nome" : "COROATÁ",
		"lat" : -4.128976,
		"long" : -44.1255992014644
	},
	{
		"uf" : "210370305000001",
		"cod_ibge" : "2103703",
		"nome" : "CURURUPU",
		"lat" : -1.8255207812193,
		"long" : -44.8677616169761
	},
	{
		"uf" : "210375205000001",
		"cod_ibge" : "2103752",
		"nome" : "DAVINÓPOLIS",
		"lat" : -5.53445621610635,
		"long" : -47.4049963875281
	},
	{
		"uf" : "210380205000001",
		"cod_ibge" : "2103802",
		"nome" : "DOM PEDRO",
		"lat" : -5.03844763516531,
		"long" : -44.4400099109689
	},
	{
		"uf" : "210390105000001",
		"cod_ibge" : "2103901",
		"nome" : "DUQUE BACELAR",
		"lat" : -4.14781909711357,
		"long" : -42.9441802036073
	},
	{
		"uf" : "210400805000001",
		"cod_ibge" : "2104008",
		"nome" : "ESPERANTINÓPOLIS",
		"lat" : -4.87030089747643,
		"long" : -44.8860686990188
	},
	{
		"uf" : "210405705000001",
		"cod_ibge" : "2104057",
		"nome" : "ESTREITO",
		"lat" : -6.56808498021472,
		"long" : -47.4478829861377
	},
	{
		"uf" : "210407305000001",
		"cod_ibge" : "2104073",
		"nome" : "FEIRA NOVA DO MARANHÃO",
		"lat" : -6.96313554062729,
		"long" : -46.6873552159638
	},
	{
		"uf" : "210408105000001",
		"cod_ibge" : "2104081",
		"nome" : "FERNANDO FALCÃO",
		"lat" : -6.154978462916,
		"long" : -44.9107074022131
	},
	{
		"uf" : "210409905000001",
		"cod_ibge" : "2104099",
		"nome" : "FORMOSA DA SERRA NEGRA",
		"lat" : -6.43530410561392,
		"long" : -46.1863570068861
	},
	{
		"uf" : "210410705000001",
		"cod_ibge" : "2104107",
		"nome" : "FORTALEZA DOS NOGUEIRAS",
		"lat" : -6.9659260874923,
		"long" : -46.1855575419836
	},
	{
		"uf" : "210420605000001",
		"cod_ibge" : "2104206",
		"nome" : "FORTUNA",
		"lat" : -5.73622413247702,
		"long" : -44.1606284272259
	},
	{
		"uf" : "210430505000001",
		"cod_ibge" : "2104305",
		"nome" : "GODOFREDO VIANA",
		"lat" : -1.40980018673278,
		"long" : -45.7717548080523
	},
	{
		"uf" : "210440405000001",
		"cod_ibge" : "2104404",
		"nome" : "GONÇALVES DIAS",
		"lat" : -5.14395556946104,
		"long" : -44.3059065359375
	},
	{
		"uf" : "210450305000001",
		"cod_ibge" : "2104503",
		"nome" : "GOVERNADOR ARCHER",
		"lat" : -5.02538782392684,
		"long" : -44.2757565261253
	},
	{
		"uf" : "210455205000001",
		"cod_ibge" : "2104552",
		"nome" : "GOVERNADOR EDISON LOBÃO",
		"lat" : -5.74741173851254,
		"long" : -47.3689358390373
	},
	{
		"uf" : "210460205000001",
		"cod_ibge" : "2104602",
		"nome" : "GOVERNADOR EUGÊNIO BARROS",
		"lat" : -5.32249100152954,
		"long" : -44.2469626460204
	},
	{
		"uf" : "210462805000001",
		"cod_ibge" : "2104628",
		"nome" : "GOVERNADOR LUIZ ROCHA",
		"lat" : -5.47286468491781,
		"long" : -44.0708873355169
	},
	{
		"uf" : "210465105000001",
		"cod_ibge" : "2104651",
		"nome" : "GOVERNADOR NEWTON BELLO",
		"lat" : -3.42970471990357,
		"long" : -45.6745017970092
	},
	{
		"uf" : "210467705000001",
		"cod_ibge" : "2104677",
		"nome" : "GOVERNADOR NUNES FREIRE",
		"lat" : -2.13496236,
		"long" : -45.8814811327942
	},
	{
		"uf" : "210470105000001",
		"cod_ibge" : "2104701",
		"nome" : "GRAÇA ARANHA",
		"lat" : -5.40482121305463,
		"long" : -44.33579125992
	},
	{
		"uf" : "210480005000001",
		"cod_ibge" : "2104800",
		"nome" : "GRAJAÚ",
		"lat" : -5.81854843133104,
		"long" : -46.1423956359934
	},
	{
		"uf" : "210490905000001",
		"cod_ibge" : "2104909",
		"nome" : "GUIMARÃES",
		"lat" : -2.13507715838452,
		"long" : -44.5977464563371
	},
	{
		"uf" : "210500505000001",
		"cod_ibge" : "2105005",
		"nome" : "HUMBERTO DE CAMPOS",
		"lat" : -2.59122397226084,
		"long" : -43.4650921443146
	},
	{
		"uf" : "210510405000001",
		"cod_ibge" : "2105104",
		"nome" : "ICATU",
		"lat" : -2.77482786309925,
		"long" : -44.06584846864
	},
	{
		"uf" : "210515305000001",
		"cod_ibge" : "2105153",
		"nome" : "IGARAPÉ DO MEIO",
		"lat" : -3.63670852186543,
		"long" : -45.1833277021706
	},
	{
		"uf" : "210520305000001",
		"cod_ibge" : "2105203",
		"nome" : "IGARAPÉ GRANDE",
		"lat" : -4.66085380623745,
		"long" : -44.8674033458603
	},
	{
		"uf" : "210530205000001",
		"cod_ibge" : "2105302",
		"nome" : "IMPERATRIZ",
		"lat" : -5.52652402518114,
		"long" : -47.4798108057682
	},
	{
		"uf" : "210535105000001",
		"cod_ibge" : "2105351",
		"nome" : "ITAIPAVA DO GRAJAÚ",
		"lat" : -5.1445822617698,
		"long" : -45.792682503469
	},
	{
		"uf" : "210540105000001",
		"cod_ibge" : "2105401",
		"nome" : "ITAPECURU MIRIM",
		"lat" : -3.39904548011184,
		"long" : -44.354263390434
	},
	{
		"uf" : "210542705000001",
		"cod_ibge" : "2105427",
		"nome" : "ITINGA DO MARANHÃO",
		"lat" : -4.45500399844588,
		"long" : -47.5279099637574
	},
	{
		"uf" : "210545005000001",
		"cod_ibge" : "2105450",
		"nome" : "JATOBÁ",
		"lat" : -5.81966693677504,
		"long" : -44.2199147698158
	},
	{
		"uf" : "210547605000001",
		"cod_ibge" : "2105476",
		"nome" : "JENIPAPO DOS VIEIRAS",
		"lat" : -5.36942492643339,
		"long" : -45.6333791074203
	},
	{
		"uf" : "210550005000001",
		"cod_ibge" : "2105500",
		"nome" : "JOÃO LISBOA",
		"lat" : -5.45366294155917,
		"long" : -47.4050361497684
	},
	{
		"uf" : "210560905000001",
		"cod_ibge" : "2105609",
		"nome" : "JOSELÂNDIA",
		"lat" : -4.97269332894745,
		"long" : -44.6991525645005
	},
	{
		"uf" : "210565805000001",
		"cod_ibge" : "2105658",
		"nome" : "JUNCO DO MARANHÃO",
		"lat" : -1.87460959750276,
		"long" : -46.0707260732137
	},
	{
		"uf" : "210570805000001",
		"cod_ibge" : "2105708",
		"nome" : "LAGO DA PEDRA",
		"lat" : -4.564744515,
		"long" : -45.1258913559145
	},
	{
		"uf" : "210580705000001",
		"cod_ibge" : "2105807",
		"nome" : "LAGO DO JUNCO",
		"lat" : -4.60764321768366,
		"long" : -45.0513443921165
	},
	{
		"uf" : "210590605000001",
		"cod_ibge" : "2105906",
		"nome" : "LAGO VERDE",
		"lat" : -4.03871129527666,
		"long" : -44.9376352319942
	},
	{
		"uf" : "210592205000001",
		"cod_ibge" : "2105922",
		"nome" : "LAGOA DO MATO",
		"lat" : -6.04527729657082,
		"long" : -43.5275591165627
	},
	{
		"uf" : "210594805000001",
		"cod_ibge" : "2105948",
		"nome" : "LAGO DOS RODRIGUES",
		"lat" : -4.61237577693148,
		"long" : -44.9764423255877
	},
	{
		"uf" : "210596305000001",
		"cod_ibge" : "2105963",
		"nome" : "LAGOA GRANDE DO MARANHÃO",
		"lat" : -4.99312373713713,
		"long" : -45.3906142793613
	},
	{
		"uf" : "210598905000001",
		"cod_ibge" : "2105989",
		"nome" : "LAJEADO NOVO",
		"lat" : -6.19160922666686,
		"long" : -47.0324475171004
	},
	{
		"uf" : "210600305000001",
		"cod_ibge" : "2106003",
		"nome" : "LIMA CAMPOS",
		"lat" : -4.51704598721753,
		"long" : -44.4693403292236
	},
	{
		"uf" : "210610205000001",
		"cod_ibge" : "2106102",
		"nome" : "LORETO",
		"lat" : -7.09445416538222,
		"long" : -45.1392416375273
	},
	{
		"uf" : "210620105000001",
		"cod_ibge" : "2106201",
		"nome" : "LUÍS DOMINGUES",
		"lat" : -1.32546024435309,
		"long" : -45.8953319920784
	},
	{
		"uf" : "210630005000001",
		"cod_ibge" : "2106300",
		"nome" : "MAGALHÃES DE ALMEIDA",
		"lat" : -3.3966676742208,
		"long" : -42.2015066913751
	},
	{
		"uf" : "210632605000001",
		"cod_ibge" : "2106326",
		"nome" : "MARACAÇUMÉ",
		"lat" : -2.05616454951514,
		"long" : -45.9586390371679
	},
	{
		"uf" : "210635905000001",
		"cod_ibge" : "2106359",
		"nome" : "MARAJÁ DO SENA",
		"lat" : -4.62031332412411,
		"long" : -45.4572376525781
	},
	{
		"uf" : "210637505000001",
		"cod_ibge" : "2106375",
		"nome" : "MARANHÃOZINHO",
		"lat" : -2.235616992076,
		"long" : -45.8556114548668
	},
	{
		"uf" : "210640905000001",
		"cod_ibge" : "2106409",
		"nome" : "MATA ROMA",
		"lat" : -3.61904550989372,
		"long" : -43.1203894235718
	},
	{
		"uf" : "210650805000001",
		"cod_ibge" : "2106508",
		"nome" : "MATINHA",
		"lat" : -3.09840003,
		"long" : -45.0364289401062
	},
	{
		"uf" : "210660705000001",
		"cod_ibge" : "2106607",
		"nome" : "MATÕES",
		"lat" : -5.52246501943405,
		"long" : -43.201208282913
	},
	{
		"uf" : "210663105000001",
		"cod_ibge" : "2106631",
		"nome" : "MATÕES DO NORTE",
		"lat" : -3.62751878021672,
		"long" : -44.5502445069402
	},
	{
		"uf" : "210667205000001",
		"cod_ibge" : "2106672",
		"nome" : "MILAGRES DO MARANHÃO",
		"lat" : -3.58220664139805,
		"long" : -42.6107528325103
	},
	{
		"uf" : "210670605000001",
		"cod_ibge" : "2106706",
		"nome" : "MIRADOR",
		"lat" : -6.37756569538775,
		"long" : -44.3626097938789
	},
	{
		"uf" : "210675505000001",
		"cod_ibge" : "2106755",
		"nome" : "MIRANDA DO NORTE",
		"lat" : -3.56264477442983,
		"long" : -44.5842756917321
	},
	{
		"uf" : "210680505000001",
		"cod_ibge" : "2106805",
		"nome" : "MIRINZAL",
		"lat" : -2.06422419159107,
		"long" : -44.7857559864783
	},
	{
		"uf" : "210690405000001",
		"cod_ibge" : "2106904",
		"nome" : "MONÇÃO",
		"lat" : -3.49393248,
		"long" : -45.2475846706441
	},
	{
		"uf" : "210700105000001",
		"cod_ibge" : "2107001",
		"nome" : "MONTES ALTOS",
		"lat" : -5.82856250416417,
		"long" : -47.0704395080146
	},
	{
		"uf" : "210710005000001",
		"cod_ibge" : "2107100",
		"nome" : "MORROS",
		"lat" : -2.86147895308791,
		"long" : -44.0445445431756
	},
	{
		"uf" : "210720905000001",
		"cod_ibge" : "2107209",
		"nome" : "NINA RODRIGUES",
		"lat" : -3.46246428944702,
		"long" : -43.9044847603497
	},
	{
		"uf" : "210725805000001",
		"cod_ibge" : "2107258",
		"nome" : "NOVA COLINAS",
		"lat" : -7.12056600356251,
		"long" : -46.2593252229153
	},
	{
		"uf" : "210730805000001",
		"cod_ibge" : "2107308",
		"nome" : "NOVA IORQUE",
		"lat" : -6.73320330579158,
		"long" : -44.0486267271013
	},
	{
		"uf" : "210735705000001",
		"cod_ibge" : "2107357",
		"nome" : "NOVA OLINDA DO MARANHÃO",
		"lat" : -2.79988654406012,
		"long" : -45.7045360408348
	},
	{
		"uf" : "210740705000001",
		"cod_ibge" : "2107407",
		"nome" : "OLHO D'ÁGUA DAS CUNHÃS",
		"lat" : -4.13727592980541,
		"long" : -45.1195796205
	},
	{
		"uf" : "210745605000001",
		"cod_ibge" : "2107456",
		"nome" : "OLINDA NOVA DO MARANHÃO",
		"lat" : -2.99747761540954,
		"long" : -45.0032353744727
	},
	{
		"uf" : "210750605000001",
		"cod_ibge" : "2107506",
		"nome" : "PAÇO DO LUMIAR",
		"lat" : -2.528063,
		"long" : -44.0986923548404
	},
	{
		"uf" : "210760505000001",
		"cod_ibge" : "2107605",
		"nome" : "PALMEIRÂNDIA",
		"lat" : -2.64777427826389,
		"long" : -44.9044638923101
	},
	{
		"uf" : "210770405000001",
		"cod_ibge" : "2107704",
		"nome" : "PARAIBANO",
		"lat" : -6.43182541413892,
		"long" : -43.9857620488226
	},
	{
		"uf" : "210780305000001",
		"cod_ibge" : "2107803",
		"nome" : "PARNARAMA",
		"lat" : -5.6844671764059,
		"long" : -43.0904013534701
	},
	{
		"uf" : "210790205000001",
		"cod_ibge" : "2107902",
		"nome" : "PASSAGEM FRANCA",
		"lat" : -6.17399442555871,
		"long" : -43.781745225862
	},
	{
		"uf" : "210800905000001",
		"cod_ibge" : "2108009",
		"nome" : "PASTOS BONS",
		"lat" : -6.60402773206398,
		"long" : -44.0886025133719
	},
	{
		"uf" : "210805805000001",
		"cod_ibge" : "2108058",
		"nome" : "PAULINO NEVES",
		"lat" : -2.71820598982708,
		"long" : -42.5454239809373
	},
	{
		"uf" : "210810805000001",
		"cod_ibge" : "2108108",
		"nome" : "PAULO RAMOS",
		"lat" : -4.44795676593636,
		"long" : -45.2399800047299
	},
	{
		"uf" : "210820705000001",
		"cod_ibge" : "2108207",
		"nome" : "PEDREIRAS",
		"lat" : -4.56935068809905,
		"long" : -44.6037348763271
	},
	{
		"uf" : "210825605000001",
		"cod_ibge" : "2108256",
		"nome" : "PEDRO DO ROSÁRIO",
		"lat" : -2.96811467267822,
		"long" : -45.3464537341415
	},
	{
		"uf" : "210830605000001",
		"cod_ibge" : "2108306",
		"nome" : "PENALVA",
		"lat" : -3.29323331776922,
		"long" : -45.1764616887688
	},
	{
		"uf" : "210840505000001",
		"cod_ibge" : "2108405",
		"nome" : "PERI MIRIM",
		"lat" : -2.57305464850608,
		"long" : -44.8502907000589
	},
	{
		"uf" : "210845405000001",
		"cod_ibge" : "2108454",
		"nome" : "PERITORÓ",
		"lat" : -4.37022511765711,
		"long" : -44.3258535239149
	},
	{
		"uf" : "210850405000001",
		"cod_ibge" : "2108504",
		"nome" : "PINDARÉ-MIRIM",
		"lat" : -3.60550057491389,
		"long" : -45.3468679178433
	},
	{
		"uf" : "210860305000001",
		"cod_ibge" : "2108603",
		"nome" : "PINHEIRO",
		"lat" : -2.5227405,
		"long" : -45.0839266012937
	},
	{
		"uf" : "210870205000001",
		"cod_ibge" : "2108702",
		"nome" : "PIO XII",
		"lat" : -3.88758753012782,
		"long" : -45.169960388665
	},
	{
		"uf" : "210880105000001",
		"cod_ibge" : "2108801",
		"nome" : "PIRAPEMAS",
		"lat" : -3.72532906611683,
		"long" : -44.2282808838415
	},
	{
		"uf" : "210890005000001",
		"cod_ibge" : "2108900",
		"nome" : "POÇÃO DE PEDRAS",
		"lat" : -4.75002521124495,
		"long" : -44.9515514003151
	},
	{
		"uf" : "210900705000001",
		"cod_ibge" : "2109007",
		"nome" : "PORTO FRANCO",
		"lat" : -6.35418186391414,
		"long" : -47.3821649019193
	},
	{
		"uf" : "210905605000001",
		"cod_ibge" : "2109056",
		"nome" : "PORTO RICO DO MARANHÃO",
		"lat" : -1.85722321484413,
		"long" : -44.5837478895568
	},
	{
		"uf" : "210910605000001",
		"cod_ibge" : "2109106",
		"nome" : "PRESIDENTE DUTRA",
		"lat" : -5.28237425775883,
		"long" : -44.4929188624246
	},
	{
		"uf" : "210920505000001",
		"cod_ibge" : "2109205",
		"nome" : "PRESIDENTE JUSCELINO",
		"lat" : -2.92822924614923,
		"long" : -44.0767794214185
	},
	{
		"uf" : "210923905000001",
		"cod_ibge" : "2109239",
		"nome" : "PRESIDENTE MÉDICI",
		"lat" : -2.38366404653914,
		"long" : -45.8207086475539
	},
	{
		"uf" : "210927005000001",
		"cod_ibge" : "2109270",
		"nome" : "PRESIDENTE SARNEY",
		"lat" : -2.59553055990599,
		"long" : -45.3713022606449
	},
	{
		"uf" : "210930405000001",
		"cod_ibge" : "2109304",
		"nome" : "PRESIDENTE VARGAS",
		"lat" : -3.40201152220656,
		"long" : -44.0334018673342
	},
	{
		"uf" : "210940305000001",
		"cod_ibge" : "2109403",
		"nome" : "PRIMEIRA CRUZ",
		"lat" : -2.51058317196358,
		"long" : -43.4424433046987
	},
	{
		"uf" : "210945205000001",
		"cod_ibge" : "2109452",
		"nome" : "RAPOSA",
		"lat" : -2.41507490262868,
		"long" : -44.1025161642031
	},
	{
		"uf" : "210950205000001",
		"cod_ibge" : "2109502",
		"nome" : "RIACHÃO",
		"lat" : -7.36456500024021,
		"long" : -46.6233501429074
	},
	{
		"uf" : "210955105000001",
		"cod_ibge" : "2109551",
		"nome" : "RIBAMAR FIQUENE",
		"lat" : -5.93382285881857,
		"long" : -47.3834777870799
	},
	{
		"uf" : "210960105000001",
		"cod_ibge" : "2109601",
		"nome" : "ROSÁRIO",
		"lat" : -2.941543035,
		"long" : -44.2475185952615
	},
	{
		"uf" : "210970005000001",
		"cod_ibge" : "2109700",
		"nome" : "SAMBAÍBA",
		"lat" : -7.13835089749796,
		"long" : -45.3442031980139
	},
	{
		"uf" : "210975905000001",
		"cod_ibge" : "2109759",
		"nome" : "SANTA FILOMENA DO MARANHÃO",
		"lat" : -5.4997668067221,
		"long" : -44.5637140401312
	},
	{
		"uf" : "210980905000001",
		"cod_ibge" : "2109809",
		"nome" : "SANTA HELENA",
		"lat" : -2.23453250892676,
		"long" : -45.3051611932379
	},
	{
		"uf" : "210990805000001",
		"cod_ibge" : "2109908",
		"nome" : "SANTA INÊS",
		"lat" : -3.65857452,
		"long" : -45.3782724523024
	},
	{
		"uf" : "211000505000001",
		"cod_ibge" : "2110005",
		"nome" : "SANTA LUZIA",
		"lat" : -3.968391465,
		"long" : -45.6650117249372
	},
	{
		"uf" : "211003905000001",
		"cod_ibge" : "2110039",
		"nome" : "SANTA LUZIA DO PARUÁ",
		"lat" : -2.54616147481491,
		"long" : -45.7764615615901
	},
	{
		"uf" : "211010405000001",
		"cod_ibge" : "2110104",
		"nome" : "SANTA QUITÉRIA DO MARANHÃO",
		"lat" : -3.49848499511509,
		"long" : -42.5628730097352
	},
	{
		"uf" : "211020305000001",
		"cod_ibge" : "2110203",
		"nome" : "SANTA RITA",
		"lat" : -3.13411676567102,
		"long" : -44.3199480818757
	},
	{
		"uf" : "211023705000001",
		"cod_ibge" : "2110237",
		"nome" : "SANTANA DO MARANHÃO",
		"lat" : -3.11306834278169,
		"long" : -42.4007677571893
	},
	{
		"uf" : "211027805000001",
		"cod_ibge" : "2110278",
		"nome" : "SANTO AMARO DO MARANHÃO",
		"lat" : -2.5027211989687,
		"long" : -43.2552849422448
	},
	{
		"uf" : "211030205000001",
		"cod_ibge" : "2110302",
		"nome" : "SANTO ANTÔNIO DOS LOPES",
		"lat" : -4.87381957559703,
		"long" : -44.3614474338019
	},
	{
		"uf" : "211040105000001",
		"cod_ibge" : "2110401",
		"nome" : "SÃO BENEDITO DO RIO PRETO",
		"lat" : -3.33276600373026,
		"long" : -43.5299918701629
	},
	{
		"uf" : "211050005000001",
		"cod_ibge" : "2110500",
		"nome" : "SÃO BENTO",
		"lat" : -2.6970075,
		"long" : -44.8283451799242
	},
	{
		"uf" : "211060905000001",
		"cod_ibge" : "2110609",
		"nome" : "SÃO BERNARDO",
		"lat" : -3.36543651011074,
		"long" : -42.4230096609141
	},
	{
		"uf" : "211065805000001",
		"cod_ibge" : "2110658",
		"nome" : "SÃO DOMINGOS DO AZEITÃO",
		"lat" : -6.80442500975138,
		"long" : -44.6504239102536
	},
	{
		"uf" : "211070805000001",
		"cod_ibge" : "2110708",
		"nome" : "SÃO DOMINGOS DO MARANHÃO",
		"lat" : -5.5656420001824,
		"long" : -44.3928792568666
	},
	{
		"uf" : "211080705000001",
		"cod_ibge" : "2110807",
		"nome" : "SÃO FÉLIX DE BALSAS",
		"lat" : -7.08468515424976,
		"long" : -44.8114476614751
	},
	{
		"uf" : "211085605000001",
		"cod_ibge" : "2110856",
		"nome" : "SÃO FRANCISCO DO BREJÃO",
		"lat" : -5.13020078716627,
		"long" : -47.3911373985947
	},
	{
		"uf" : "211090605000001",
		"cod_ibge" : "2110906",
		"nome" : "SÃO FRANCISCO DO MARANHÃO",
		"lat" : -6.2527979166509,
		"long" : -42.8653217275577
	},
	{
		"uf" : "211100305000001",
		"cod_ibge" : "2111003",
		"nome" : "SÃO JOÃO BATISTA",
		"lat" : -2.95333291245805,
		"long" : -44.8117618530648
	},
	{
		"uf" : "211102905000001",
		"cod_ibge" : "2111029",
		"nome" : "SÃO JOÃO DO CARÚ",
		"lat" : -3.56080340686086,
		"long" : -46.2549254827263
	},
	{
		"uf" : "211105205000001",
		"cod_ibge" : "2111052",
		"nome" : "SÃO JOÃO DO PARAÍSO",
		"lat" : -6.46622228636398,
		"long" : -47.0506104204952
	},
	{
		"uf" : "211107805000001",
		"cod_ibge" : "2111078",
		"nome" : "SÃO JOÃO DO SOTER",
		"lat" : -5.11573926436997,
		"long" : -43.8181817951061
	},
	{
		"uf" : "211110205000001",
		"cod_ibge" : "2111102",
		"nome" : "SÃO JOÃO DOS PATOS",
		"lat" : -6.4982081521098,
		"long" : -43.7029101657958
	},
	{
		"uf" : "211120105000001",
		"cod_ibge" : "2111201",
		"nome" : "SÃO JOSÉ DE RIBAMAR",
		"lat" : -2.55585852,
		"long" : -44.0575481150532
	},
	{
		"uf" : "211125005000001",
		"cod_ibge" : "2111250",
		"nome" : "SÃO JOSÉ DOS BASÍLIOS",
		"lat" : -5.04868724515117,
		"long" : -44.5824465175581
	},
	{
		"uf" : "211130005000001",
		"cod_ibge" : "2111300",
		"nome" : "SÃO LUÍS",
		"lat" : -2.53188598508339,
		"long" : -44.2979185642444
	},
	{
		"uf" : "211140905000001",
		"cod_ibge" : "2111409",
		"nome" : "SÃO LUÍS GONZAGA DO MARANHÃO",
		"lat" : -4.37391849056593,
		"long" : -44.6627084964498
	},
	{
		"uf" : "211150805000001",
		"cod_ibge" : "2111508",
		"nome" : "SÃO MATEUS DO MARANHÃO",
		"lat" : -4.03455051013261,
		"long" : -44.4685628110946
	},
	{
		"uf" : "211153205000001",
		"cod_ibge" : "2111532",
		"nome" : "SÃO PEDRO DA ÁGUA BRANCA",
		"lat" : -5.08891099740741,
		"long" : -48.4236235936456
	},
	{
		"uf" : "211157305000001",
		"cod_ibge" : "2111573",
		"nome" : "SÃO PEDRO DOS CRENTES",
		"lat" : -6.82855564083834,
		"long" : -46.5325803473698
	},
	{
		"uf" : "211160705000001",
		"cod_ibge" : "2111607",
		"nome" : "SÃO RAIMUNDO DAS MANGABEIRAS",
		"lat" : -7.02696265716848,
		"long" : -45.4848314302202
	},
	{
		"uf" : "211163105000001",
		"cod_ibge" : "2111631",
		"nome" : "SÃO RAIMUNDO DO DOCA BEZERRA",
		"lat" : -5.10318184489716,
		"long" : -45.0841627902783
	},
	{
		"uf" : "211167205000001",
		"cod_ibge" : "2111672",
		"nome" : "SÃO ROBERTO",
		"lat" : -5.01736688238089,
		"long" : -44.9919011592934
	},
	{
		"uf" : "211170605000001",
		"cod_ibge" : "2111706",
		"nome" : "SÃO VICENTE FERRER",
		"lat" : -2.89073106437795,
		"long" : -44.8869045766146
	},
	{
		"uf" : "211172205000001",
		"cod_ibge" : "2111722",
		"nome" : "SATUBINHA",
		"lat" : -4.03573549481028,
		"long" : -45.2336295762481
	},
	{
		"uf" : "211174805000001",
		"cod_ibge" : "2111748",
		"nome" : "SENADOR ALEXANDRE COSTA",
		"lat" : -5.26107654438389,
		"long" : -44.056301506417
	},
	{
		"uf" : "211176305000001",
		"cod_ibge" : "2111763",
		"nome" : "SENADOR LA ROCQUE",
		"lat" : -5.44183249517839,
		"long" : -47.2891914239822
	},
	{
		"uf" : "211178905000001",
		"cod_ibge" : "2111789",
		"nome" : "SERRANO DO MARANHÃO",
		"lat" : -1.85264554172752,
		"long" : -45.1146408497435
	},
	{
		"uf" : "211180505000001",
		"cod_ibge" : "2111805",
		"nome" : "SÍTIO NOVO",
		"lat" : -5.87062989131234,
		"long" : -46.6949833406808
	},
	{
		"uf" : "211190405000001",
		"cod_ibge" : "2111904",
		"nome" : "SUCUPIRA DO NORTE",
		"lat" : -6.47828444762036,
		"long" : -44.1886027051903
	},
	{
		"uf" : "211195305000001",
		"cod_ibge" : "2111953",
		"nome" : "SUCUPIRA DO RIACHÃO",
		"lat" : -6.42010840512647,
		"long" : -43.5458533208452
	},
	{
		"uf" : "211200105000001",
		"cod_ibge" : "2112001",
		"nome" : "TASSO FRAGOSO",
		"lat" : -8.47983101786688,
		"long" : -45.7441235175102
	},
	{
		"uf" : "211210005000001",
		"cod_ibge" : "2112100",
		"nome" : "TIMBIRAS",
		"lat" : -4.253840505,
		"long" : -43.9384339738391
	},
	{
		"uf" : "211220905000001",
		"cod_ibge" : "2112209",
		"nome" : "TIMON",
		"lat" : -5.10068111012935,
		"long" : -42.8337278988597
	},
	{
		"uf" : "211223305000001",
		"cod_ibge" : "2112233",
		"nome" : "TRIZIDELA DO VALE",
		"lat" : -4.57012685660997,
		"long" : -44.6106851966461
	},
	{
		"uf" : "211227405000001",
		"cod_ibge" : "2112274",
		"nome" : "TUFILÂNDIA",
		"lat" : -3.6764041183838,
		"long" : -45.6339164756818
	},
	{
		"uf" : "211230805000001",
		"cod_ibge" : "2112308",
		"nome" : "TUNTUM",
		"lat" : -5.24965554,
		"long" : -44.6490121516647
	},
	{
		"uf" : "211240705000001",
		"cod_ibge" : "2112407",
		"nome" : "TURIAÇU",
		"lat" : -1.66902204768173,
		"long" : -45.3691524172241
	},
	{
		"uf" : "211245605000001",
		"cod_ibge" : "2112456",
		"nome" : "TURILÂNDIA",
		"lat" : -2.22883352495052,
		"long" : -45.30676531197
	},
	{
		"uf" : "211250605000001",
		"cod_ibge" : "2112506",
		"nome" : "TUTÓIA",
		"lat" : -2.76355019688869,
		"long" : -42.2768472076943
	},
	{
		"uf" : "211260505000001",
		"cod_ibge" : "2112605",
		"nome" : "URBANO SANTOS",
		"lat" : -3.20840949958587,
		"long" : -43.4042484723562
	},
	{
		"uf" : "211270405000001",
		"cod_ibge" : "2112704",
		"nome" : "VARGEM GRANDE",
		"lat" : -3.54189600011652,
		"long" : -43.9166644901652
	},
	{
		"uf" : "211280305000001",
		"cod_ibge" : "2112803",
		"nome" : "VIANA",
		"lat" : -3.21456251306625,
		"long" : -45.0013066952616
	},
	{
		"uf" : "211285205000001",
		"cod_ibge" : "2112852",
		"nome" : "VILA NOVA DOS MARTÍRIOS",
		"lat" : -5.18351151920427,
		"long" : -48.138926482601
	},
	{
		"uf" : "211290205000001",
		"cod_ibge" : "2112902",
		"nome" : "VITÓRIA DO MEARIM",
		"lat" : -3.48204736454661,
		"long" : -44.8695722405589
	},
	{
		"uf" : "211300905000001",
		"cod_ibge" : "2113009",
		"nome" : "VITORINO FREIRE",
		"lat" : -4.29118650014099,
		"long" : -45.244185143155
	},
	{
		"uf" : "211400705000001",
		"cod_ibge" : "2114007",
		"nome" : "ZÉ DOCA",
		"lat" : -3.2754805,
		"long" : -45.657697860605
	},
	{
		"uf" : "220005305000001",
		"cod_ibge" : "2200053",
		"nome" : "ACAUÃ",
		"lat" : -8.22078666287762,
		"long" : -41.0836378172387
	},
	{
		"uf" : "220010305000001",
		"cod_ibge" : "2200103",
		"nome" : "AGRICOLÂNDIA",
		"lat" : -5.79550193543481,
		"long" : -42.6591831974356
	},
	{
		"uf" : "220020205000001",
		"cod_ibge" : "2200202",
		"nome" : "ÁGUA BRANCA",
		"lat" : -5.89326633794508,
		"long" : -42.6351308599585
	},
	{
		"uf" : "220025105000001",
		"cod_ibge" : "2200251",
		"nome" : "ALAGOINHA DO PIAUÍ",
		"lat" : -7.00817528014998,
		"long" : -40.9346348169192
	},
	{
		"uf" : "220027705000001",
		"cod_ibge" : "2200277",
		"nome" : "ALEGRETE DO PIAUÍ",
		"lat" : -7.2453494663005,
		"long" : -40.8578629896146
	},
	{
		"uf" : "220030105000001",
		"cod_ibge" : "2200301",
		"nome" : "ALTO LONGÁ",
		"lat" : -5.25099301135127,
		"long" : -42.210321962161
	},
	{
		"uf" : "220040005000001",
		"cod_ibge" : "2200400",
		"nome" : "ALTOS",
		"lat" : -5.03654643434055,
		"long" : -42.4609480355568
	},
	{
		"uf" : "220045905000001",
		"cod_ibge" : "2200459",
		"nome" : "ALVORADA DO GURGUÉIA",
		"lat" : -8.44395907228392,
		"long" : -43.8630715789216
	},
	{
		"uf" : "220050905000001",
		"cod_ibge" : "2200509",
		"nome" : "AMARANTE",
		"lat" : -6.24661077217367,
		"long" : -42.8536928230327
	},
	{
		"uf" : "220060805000001",
		"cod_ibge" : "2200608",
		"nome" : "ANGICAL DO PIAUÍ",
		"lat" : -6.08724169212959,
		"long" : -42.7438657484282
	},
	{
		"uf" : "220070705000001",
		"cod_ibge" : "2200707",
		"nome" : "ANÍSIO DE ABREU",
		"lat" : -9.17491853090693,
		"long" : -43.0348533320546
	},
	{
		"uf" : "220080605000001",
		"cod_ibge" : "2200806",
		"nome" : "ANTÔNIO ALMEIDA",
		"lat" : -7.21935583400696,
		"long" : -44.1965353200183
	},
	{
		"uf" : "220090505000001",
		"cod_ibge" : "2200905",
		"nome" : "AROAZES",
		"lat" : -6.11285025626382,
		"long" : -41.797453338794
	},
	{
		"uf" : "220095405000001",
		"cod_ibge" : "2200954",
		"nome" : "AROEIRAS DO ITAIM",
		"lat" : -7.27874546497215,
		"long" : -41.5632044182612
	},
	{
		"uf" : "220100205000001",
		"cod_ibge" : "2201002",
		"nome" : "ARRAIAL",
		"lat" : -6.65082702747813,
		"long" : -42.5365666246569
	},
	{
		"uf" : "220105105000001",
		"cod_ibge" : "2201051",
		"nome" : "ASSUNÇÃO DO PIAUÍ",
		"lat" : -5.8649144945276,
		"long" : -41.0508299964828
	},
	{
		"uf" : "220110105000001",
		"cod_ibge" : "2201101",
		"nome" : "AVELINO LOPES",
		"lat" : -10.1347450128483,
		"long" : -43.9415101417959
	},
	{
		"uf" : "220115005000001",
		"cod_ibge" : "2201150",
		"nome" : "BAIXA GRANDE DO RIBEIRO",
		"lat" : -7.85335195918549,
		"long" : -45.212815292567
	},
	{
		"uf" : "220117605000001",
		"cod_ibge" : "2201176",
		"nome" : "BARRA D'ALCÂNTARA",
		"lat" : -6.5188730722939,
		"long" : -42.1050020825819
	},